{"busiCode":"BASE000","code":1,"mapiStatus":"SUCCESS","msg":"\u6210\u529F","re":{"info":{"carGroupServices":{},"citys":[{"baiduLatitude":"31.90562062698273","baiduLongitude":"102.23106975175465","cityId":"554","cityName":"\u963F\u575D\u85CF\u65CF\u7F8C\u65CF\u81EA\u6CBB\u5DDE","citySpell":"abazangzuqiangzu","isBusiness":1,"isHot":0,"isTaxi":1,"latitude":"31.899413","longitude":"102.224653","showCityName":"\u963F\u575D\u85CF\u65CF\u7F8C\u65CF","status":2},{"baiduLatitude":"39.472306677535215","baiduLongitude":"75.99042353960324","cityId":"497","cityName":"\u90A3\u62C9\u63D0","citySpell":"acs","isBusiness":0,"isHot":0,"isTaxi":1,"latitude":"39.466242","longitude":"75.983972","showCityName":"\u7231\u57CE\u5E02","status":2},{"baiduLatitude":"41.17688772843241","baiduLongitude":"80.27148981912231","cityId":"555","cityName":"\u963F\u514B\u82CF\u5730\u533A","citySpell":"akesudiqu","isBusiness":0,"isHot":0,"isTaxi":0,"latitude":"41.170712","longitude":"80.265068","showCityName":"\u963F\u514B\u82CF\u5730\u533A","status":1},{"baiduLatitude":"41.17490998454108","baiduLongitude":"80.26704778500658","cityId":"493","cityName":"\u963F\u514B\u82CF","citySpell":"aks","isBusiness":0,"isHot":0,"isTaxi":0,"latitude":"41.168779","longitude":"80.260605","showCityName":"\u963F\u514B\u82CF","status":2},{"baiduLatitude":"40.54772652756526","baiduLongitude":"81.29245936280752","cityId":"557","cityName":"\u963F\u62C9\u5C14","citySpell":"alaer","isBusiness":0,"isHot":0,"isTaxi":0,"latitude":"40.541914","longitude":"81.285884","showCityName":"\u963F\u62C9\u5C14","status":1},{"baiduLatitude":"38.85104765035108","baiduLongitude":"105.71281561133172","cityId":"558","cityName":"\u963F\u62C9\u5584\u76DF","citySpell":"alashanmeng","isBusiness":0,"isHot":0,"isTaxi":0,"latitude":"38.844814","longitude":"105.706422","showCityName":"\u963F\u62C9\u5584\u76DF","status":1},{"baiduLatitude":"47.85411912230821","baiduLongitude":"88.14625600303118","cityId":"559","cityName":"\u963F\u52D2\u6CF0\u5730\u533A","citySpell":"aletaidiqu","isBusiness":0,"isHot":0,"isTaxi":0,"latitude":"47.848393","longitude":"88.13963","showCityName":"\u963F\u52D2\u6CF0\u5730\u533A","status":1},{"baiduLatitude":"32.50895077530261","baiduLongitude":"80.11207720904535","cityId":"556","cityName":"\u963F\u91CC\u5730\u533A","citySpell":"alidiqu","isBusiness":0,"isHot":0,"isTaxi":0,"latitude":"32.503187","longitude":"80.105498","showCityName":"\u963F\u91CC\u5730\u533A","status":1},{"baiduLatitude":"41.11698203003458","baiduLongitude":"123.00200186166673","cityId":"73","cityName":"\u978D\u5C71","citySpell":"anshan","isBusiness":0,"isHot":0,"isTaxi":0,"latitude":"41.110626","longitude":"122.995632","showCityName":"\u978D\u5C71","status":2},{"baiduLatitude":"26.25157564884384","baiduLongitude":"105.93866011232245","cityId":"282","cityName":"\u5B89\u987A","citySpell":"anshun","isBusiness":0,"isHot":0,"isTaxi":0,"latitude":"26.245544","longitude":"105.932188","showCityName":"\u5B89\u987A","status":2},{"baiduLatitude":"36.109754229113214","baiduLongitude":"114.35886743295515","cityId":"560","cityName":"\u5B89\u9633","citySpell":"anyang","isBusiness":0,"isHot":0,"isTaxi":0,"latitude":"36.103442","longitude":"114.352482","showCityName":"\u5B89\u9633","status":1},{"cityId":"510","cityName":"\u963F\u6CF0\u52D2","citySpell":"atl","isBusiness":1,"isHot":0,"isTaxi":0,"showCityName":"\u963F\u6CF0","status":1},{"baiduLatitude":"45.624866501349636","baiduLongitude":"122.84769114076803","cityId":"78","cityName":"\u767D\u57CE","citySpell":"baicheng","isBusiness":0,"isHot":0,"isTaxi":0,"latitude":"45.619026","longitude":"122.841114","showCityName":"\u767D\u57CE","status":1},{"cityId":"508","cityName":"\u767E\u8272","citySpell":"baise","isBusiness":0,"isHot":0,"isTaxi":0,"showCityName":"\u767E\u8272","status":2},{"baiduLatitude":"23.90343168688463","baiduLongitude":"106.62287097290195","cityId":"564","cityName":"\u767E\u8272","citySpell":"baise","isBusiness":0,"isHot":0,"isTaxi":0,"latitude":"23.897742","longitude":"106.616285","showCityName":"\u767E\u8272","status":1},{"baiduLatitude":"19.230846712034477","baiduLongitude":"109.45907935127896","cityId":"567","cityName":"\u767D\u6C99\u9ECE\u65CF\u81EA\u6CBB\u53BF","citySpell":"baishalizu","isBusiness":0,"isHot":0,"isTaxi":0,"latitude":"19.224584","longitude":"109.452606","showCityName":"\u767D\u6C99\u9ECE\u65CF","status":1},{"baiduLatitude":"41.948156395342345","baiduLongitude":"126.43445189335635","cityId":"566","cityName":"\u767D\u5C71","citySpell":"baishan","isBusiness":0,"isHot":0,"isTaxi":0,"latitude":"41.942505","longitude":"126.427839","showCityName":"\u767D\u5C71","status":1},{"baiduLatitude":"36.5519145723134","baiduLongitude":"104.18001749720494","cityId":"570","cityName":"\u767D\u94F6","citySpell":"baiyin","isBusiness":0,"isHot":0,"isTaxi":0,"latitude":"36.54568","longitude":"104.173606","showCityName":"\u767D\u94F6","status":1},{"baiduLatitude":"32.94601416665908","baiduLongitude":"117.36963092433542","cityId":"561","cityName":"\u868C\u57E0","citySpell":"bangbu","isBusiness":0,"isHot":0,"isTaxi":0,"latitude":"32.939667","longitude":"117.363228","showCityName":"\u868C\u57E0","status":1},{"baiduLatitude":"38.87344469477294","baiduLongitude":"115.48888974666713","cityId":"377","cityName":"\u4FDD\u5B9A","citySpell":"baoding","isBusiness":1,"isHot":0,"isTaxi":0,"latitude":"38.867657","longitude":"115.482331","showCityName":"\u4FDD\u5B9A","status":2},{"baiduLatitude":"34.36779548817408","baiduLongitude":"107.24455012606403","cityId":"298","cityName":"\u5B9D\u9E21","citySpell":"baoji","isBusiness":0,"isHot":0,"isTaxi":1,"latitude":"34.361980","longitude":"107.237974","showCityName":"\u5B9D\u9E21","status":1},{"baiduLatitude":"25.11757438743025","baiduLongitude":"99.17371117688383","cityId":"565","cityName":"\u4FDD\u5C71","citySpell":"baoshan","isBusiness":0,"isHot":0,"isTaxi":0,"latitude":"25.111802","longitude":"99.167133","showCityName":"\u4FDD\u5C71","status":1},{"baiduLatitude":"18.642500904503816","baiduLongitude":"109.70894709984714","cityId":"569","cityName":"\u4FDD\u4EAD\u9ECE\u65CF\u82D7\u65CF\u81EA\u6CBB\u53BF","citySpell":"baotinglizumiaozu","isBusiness":0,"isHot":0,"isTaxi":0,"latitude":"18.636371","longitude":"109.70245","showCityName":"\u4FDD\u4EAD\u9ECE\u65CF\u82D7\u65CF","status":1},{"baiduLatitude":"40.66399090785771","baiduLongitude":"109.84695114631184","cityId":"55","cityName":"\u5305\u5934","citySpell":"baotou","isBusiness":0,"isHot":0,"isTaxi":0,"latitude":"40.658168","longitude":"109.840405","showCityName":"\u5305\u5934","status":2},{"baiduLatitude":"40.763599729444294","baiduLongitude":"107.42336707114633","cityId":"572","cityName":"\u5DF4\u5F66\u6DD6\u5C14","citySpell":"bayannaoer","isBusiness":0,"isHot":0,"isTaxi":0,"latitude":"40.757402","longitude":"107.416959","showCityName":"\u5DF4\u5F66\u6DD6\u5C14","status":1},{"baiduLatitude":"41.77478587006379","baiduLongitude":"86.15736523586334","cityId":"571","cityName":"\u5DF4\u97F3\u90ED\u695E\u8499\u53E4\u81EA\u6CBB\u5DDE","citySpell":"bayinguolengmenggu","isBusiness":0,"isHot":0,"isTaxi":0,"latitude":"41.768552","longitude":"86.150969","showCityName":"\u5DF4\u97F3\u90ED\u695E\u8499\u53E4","status":1},{"baiduLatitude":"31.8645676779712","baiduLongitude":"106.76024231886356","cityId":"573","cityName":"\u5DF4\u4E2D","citySpell":"bazhong","isBusiness":0,"isHot":0,"isTaxi":0,"latitude":"31.858809","longitude":"106.753669","showCityName":"\u5DF4\u4E2D","status":1},{"baiduLatitude":"39.910351098831015","baiduLongitude":"116.41391149987385","cityId":"1","cityName":"\u5317\u4EAC","citySpell":"beijing","isBusiness":1,"isHot":1,"isTaxi":1,"latitude":"39.904030","longitude":"116.407526","showCityName":"\u5317\u4EAC","status":2},{"baiduLatitude":"47.35935659871052","baiduLongitude":"87.83132070187659","cityId":"568","cityName":"\u5317\u5C6F","citySpell":"beitun","isBusiness":0,"isHot":0,"isTaxi":0,"latitude":"47.353177","longitude":"87.824932","showCityName":"\u5317\u5C6F","status":1},{"baiduLatitude":"41.30358761223646","baiduLongitude":"123.77714323345052","cityId":"380","cityName":"\u672C\u6EAA","citySpell":"benxi","isBusiness":0,"isHot":0,"isTaxi":0,"latitude":"41.297909","longitude":"123.770519","showCityName":"\u672C\u6EAA","status":1},{"baiduLatitude":"27.307469095362137","baiduLongitude":"105.29156623181711","cityId":"563","cityName":"\u6BD5\u8282","citySpell":"bijie","isBusiness":0,"isHot":0,"isTaxi":0,"latitude":"27.301693","longitude":"105.28501","showCityName":"\u6BD5\u8282","status":1},{"baiduLatitude":"33.99556845847696","baiduLongitude":"119.83504542762819","cityId":"456","cityName":"\u6EE8\u6D77","citySpell":"binhai","isBusiness":0,"isHot":0,"isTaxi":0,"latitude":"33.989888","longitude":"119.828434","showCityName":"\u6EE8\u6D77","status":1},{"baiduLatitude":"37.389191269930436","baiduLongitude":"118.02358122958053","cityId":"575","cityName":"\u6EE8\u5DDE","citySpell":"binzhou","isBusiness":0,"isHot":0,"isTaxi":0,"latitude":"37.383542","longitude":"118.016974","showCityName":"\u6EE8\u5DDE","status":1},{"baiduLatitude":"30.642708040502967","baiduLongitude":"88.54549996034457","cityId":"491","cityName":"\u82B7\u6C5F","citySpell":"bjheh","isBusiness":0,"isHot":0,"isTaxi":0,"latitude":"30.636581","longitude":"88.539024","showCityName":"\u767D\u52A0\u9ED1\u4E8C\u53F7","status":2},{"baiduLatitude":"44.90950408487092","baiduLongitude":"82.08116475784598","cityId":"562","cityName":"\u535A\u5C14\u5854\u62C9\u8499\u53E4\u81EA\u6CBB\u5DDE","citySpell":"boertalamenggu","isBusiness":0,"isHot":0,"isTaxi":0,"latitude":"44.903258","longitude":"82.074778","showCityName":"\u535A\u5C14\u5854\u62C9\u8499\u53E4","status":1},{"baiduLatitude":"33.875561342177846","baiduLongitude":"115.78939449236128","cityId":"574","cityName":"\u4EB3\u5DDE","citySpell":"bozhou","isBusiness":0,"isHot":0,"isTaxi":0,"latitude":"33.869338","longitude":"115.782939","showCityName":"\u4EB3\u5DDE","status":1},{"baiduLatitude":"27.513475769749718","baiduLongitude":"120.4128374227043","cityId":"464","cityName":"\u82CD\u5357","citySpell":"cangnan","isBusiness":0,"isHot":0,"isTaxi":0,"latitude":"27.507743","longitude":"120.406256","showCityName":"\u82CD\u5357","status":1},{"baiduLatitude":"38.31028951891214","baiduLongitude":"116.84541563709482","cityId":"41","cityName":"\u6CA7\u5DDE","citySpell":"cangzhou","isBusiness":0,"isHot":0,"isTaxi":0,"latitude":"38.304477","longitude":"116.838834","showCityName":"\u6CA7\u5DDE","status":1},{"baiduLatitude":"41.94528262456383","baiduLongitude":"92.55165235238566","cityId":"420","cityName":"\u957F\u767D\u5C71","citySpell":"changbaishan","isBusiness":0,"isHot":0,"isTaxi":0,"latitude":"41.939213","longitude":"92.545183","showCityName":"\u957F\u767D\u5C71","status":2},{"baiduLatitude":"43.82283231391733","baiduLongitude":"125.3301443172478","cityId":"23","cityName":"\u957F\u6625","citySpell":"changchun","isBusiness":0,"isHot":0,"isTaxi":0,"latitude":"43.817072","longitude":"125.323544","showCityName":"\u957F\u6625","status":2},{"baiduLatitude":"29.046248672056183","baiduLongitude":"111.69784108860988","cityId":"217","cityName":"\u5E38\u5FB7","citySpell":"changde","isBusiness":0,"isHot":0,"isTaxi":0,"latitude":"29.040225","longitude":"111.691347","showCityName":"\u5E38\u5FB7","status":2},{"baiduLatitude":"31.143000841540193","baiduLongitude":"97.18491510017434","cityId":"576","cityName":"\u660C\u90FD","citySpell":"changdu","isBusiness":0,"isHot":0,"isTaxi":0,"latitude":"31.136875","longitude":"97.178452","showCityName":"\u660C\u90FD","status":1},{"baiduLatitude":"44.02031209925503","baiduLongitude":"87.31062379219256","cityId":"345","cityName":"\u660C\u5409","citySpell":"changji","isBusiness":0,"isHot":0,"isTaxi":0,"latitude":"44.014577","longitude":"87.304012","showCityName":"\u660C\u5409","status":1},{"baiduLatitude":"19.267024932520084","baiduLongitude":"109.05983991564521","cityId":"577","cityName":"\u660C\u6C5F\u9ECE\u65CF\u81EA\u6CBB\u53BF","citySpell":"changjianglizu","isBusiness":0,"isHot":0,"isTaxi":0,"latitude":"19.260968","longitude":"109.053351","showCityName":"\u660C\u6C5F\u9ECE\u65CF","status":1},{"baiduLatitude":"28.23440111958369","baiduLongitude":"112.9452865056568","cityId":"24","cityName":"\u957F\u6C99","citySpell":"changsha","isBusiness":1,"isHot":0,"isTaxi":0,"latitude":"28.228209","longitude":"112.938814","showCityName":"\u957F\u6C99","status":2},{"baiduLatitude":"36.19685126123188","baiduLongitude":"113.12012788420971","cityId":"48","cityName":"\u957F\u6CBB","citySpell":"changzhi","isBusiness":0,"isHot":0,"isTaxi":0,"latitude":"36.191112","longitude":"113.113556","showCityName":"\u957F\u6CBB","status":2},{"baiduLatitude":"31.816766313676755","baiduLongitude":"119.98047748563741","cityId":"119","cityName":"\u5E38\u5DDE","citySpell":"changzhou","isBusiness":0,"isHot":0,"isTaxi":0,"latitude":"31.810689","longitude":"119.973987","showCityName":"\u5E38\u5DDE","status":2},{"baiduLatitude":"41.58278133879136","baiduLongitude":"120.45767151837737","cityId":"579","cityName":"\u671D\u9633","citySpell":"chaoyang","isBusiness":0,"isHot":0,"isTaxi":0,"latitude":"41.576758","longitude":"120.451176","showCityName":"\u671D\u9633","status":1},{"baiduLatitude":"23.668026456769564","baiduLongitude":"116.63875348359765","cityId":"581","cityName":"\u6F6E\u5DDE","citySpell":"chaozhou","isBusiness":0,"isHot":0,"isTaxi":0,"latitude":"23.661701","longitude":"116.632301","showCityName":"\u6F6E\u5DDE","status":1},{"baiduLatitude":"40.9823684296659","baiduLongitude":"117.94559905183043","cityId":"34","cityName":"\u627F\u5FB7","citySpell":"chengde","isBusiness":0,"isHot":0,"isTaxi":0,"latitude":"40.976204","longitude":"117.939152","showCityName":"\u627F\u5FB7","status":1},{"baiduLatitude":"30.578319637165702","baiduLongitude":"104.07300542574244","cityId":"11","cityName":"\u6210\u90FD","citySpell":"chengdu","isBusiness":1,"isHot":0,"isTaxi":0,"latitude":"30.572269","longitude":"104.066541","showCityName":"\u6210\u90FD","status":2},{"baiduLatitude":"19.743046418799977","baiduLongitude":"110.01365879503683","cityId":"578","cityName":"\u6F84\u8FC8\u53BF","citySpell":"chengmaixian","isBusiness":0,"isHot":0,"isTaxi":0,"latitude":"19.737095","longitude":"110.007147","showCityName":"\u6F84\u8FC8\u53BF","status":1},{"baiduLatitude":"25.79989779588937","baiduLongitude":"113.03848977565761","cityId":"224","cityName":"\u90F4\u5DDE","citySpell":"chenzhou","isBusiness":0,"isHot":0,"isTaxi":0,"latitude":"25.793589","longitude":"113.032067","showCityName":"\u90F4\u5DDE","status":1},{"baiduLatitude":"42.28119893928192","baiduLongitude":"118.96336836498114","cityId":"64","cityName":"\u8D64\u5CF0","citySpell":"chifeng","isBusiness":0,"isHot":0,"isTaxi":0,"latitude":"42.275317","longitude":"118.956806","showCityName":"\u8D64\u5CF0","status":2},{"baiduLatitude":"30.662350764976175","baiduLongitude":"117.49557938823024","cityId":"148","cityName":"\u6C60\u5DDE","citySpell":"chizhou","isBusiness":0,"isHot":0,"isTaxi":0,"latitude":"30.656037","longitude":"117.489157","showCityName":"\u6C60\u5DDE","status":2},{"baiduLatitude":"29.53884960505125","baiduLongitude":"106.5115598754275","cityId":"12","cityName":"\u91CD\u5E86","citySpell":"chongqing","isBusiness":1,"isHot":0,"isTaxi":0,"latitude":"29.533155","longitude":"106.504962","showCityName":"\u91CD\u5E86","status":2},{"baiduLatitude":"22.409863935300066","baiduLongitude":"107.36045746820842","cityId":"580","cityName":"\u5D07\u5DE6","citySpell":"chongzuo","isBusiness":0,"isHot":0,"isTaxi":0,"latitude":"22.404108","longitude":"107.353926","showCityName":"\u5D07\u5DE6","status":1},{"baiduLatitude":"25.048046246474694","baiduLongitude":"101.55251282296284","cityId":"285","cityName":"\u695A\u96C4","citySpell":"chuxiong","isBusiness":0,"isHot":0,"isTaxi":0,"latitude":"25.041988","longitude":"101.546046","showCityName":"\u695A\u96C4","status":1},{"baiduLatitude":"24.6794505484663","baiduLongitude":"102.9148024134831","cityId":"723","cityName":"\u6F84\u6C5F\u53BF","citySpell":"cjx","isBusiness":1,"isHot":0,"isTaxi":0,"latitude":"24.673734","longitude":"102.908248","showCityName":"\u6F84\u6C5F\u53BF","status":2},{"cityId":"754","cityName":"\u6D4B\u8BD5\u554A","citySpell":"cs","isBusiness":1,"isHot":0,"isTaxi":1,"showCityName":"\u6D4B\u8BD5\u57CE\u5E02","status":2},{"baiduLatitude":"28.648897002652483","baiduLongitude":"115.95446691409269","cityId":"756","cityName":"\u7C7B\u522B","citySpell":"cs","isBusiness":1,"isHot":0,"isTaxi":1,"latitude":"28.642865","longitude":"115.947994","showCityName":"\u65B0\u5EFA\u57CE\u5E02\u4E00","status":2},{"cityId":"733","cityName":"\u662F","citySpell":"csa","isBusiness":1,"isHot":0,"isTaxi":1,"showCityName":"\u6D4B\u8BD5\u554A","status":2},{"baiduLatitude":"25.595521562753802","baiduLongitude":"100.23217010636932","cityId":"293","cityName":"\u5927\u7406","citySpell":"dali","isBusiness":0,"isHot":0,"isTaxi":1,"latitude":"25.589449","longitude":"100.225668","showCityName":"\u5927\u7406","status":2},{"baiduLatitude":"38.91965817029174","baiduLongitude":"121.6213128766566","cityId":"3","cityName":"\u5927\u8FDE","citySpell":"dalian","isBusiness":1,"isHot":0,"isTaxi":1,"latitude":"38.914003","longitude":"121.614682","showCityName":"\u5927\u8FDE","status":2},{"baiduLatitude":"40.12993207900018","baiduLongitude":"124.38967679270509","cityId":"76","cityName":"\u4E39\u4E1C","citySpell":"dandong","isBusiness":0,"isHot":0,"isTaxi":0,"latitude":"40.124296","longitude":"124.383044","showCityName":"\u4E39\u4E1C","status":2},{"baiduLatitude":"31.561859316808853","baiduLongitude":"118.4964508156307","cityId":"391","cityName":"\u5F53\u6D82","citySpell":"dangtu","isBusiness":0,"isHot":0,"isTaxi":0,"latitude":"31.556167","longitude":"118.489873","showCityName":"\u5F53\u6D82","status":1},{"baiduLatitude":"19.523692998335015","baiduLongitude":"109.58322902214515","cityId":"588","cityName":"\u510B\u5DDE","citySpell":"danzhou","isBusiness":0,"isHot":0,"isTaxi":0,"latitude":"19.517486","longitude":"109.576782","showCityName":"\u510B\u5DDE","status":1},{"baiduLatitude":"46.596445850183244","baiduLongitude":"125.11934862971069","cityId":"87","cityName":"\u5927\u5E86","citySpell":"daqing","isBusiness":0,"isHot":0,"isTaxi":0,"latitude":"46.590734","longitude":"125.112720","showCityName":"\u5927\u5E86","status":2},{"baiduLatitude":"40.08292983303367","baiduLongitude":"113.30656640892023","cityId":"45","cityName":"\u5927\u540C","citySpell":"datong","isBusiness":0,"isHot":0,"isTaxi":0,"latitude":"40.076763","longitude":"113.300129","showCityName":"\u5927\u540C","status":2},{"baiduLatitude":"52.34123768497697","baiduLongitude":"124.7180517496822","cityId":"587","cityName":"\u5927\u5174\u5B89\u5CAD\u5730\u533A","citySpell":"daxinganlingdiqu","isBusiness":0,"isHot":0,"isTaxi":0,"latitude":"52.335262","longitude":"124.711526","showCityName":"\u5927\u5174\u5B89\u5CAD\u5730\u533A","status":1},{"baiduLatitude":"31.215679782597014","baiduLongitude":"107.50871508311775","cityId":"589","cityName":"\u8FBE\u5DDE","citySpell":"dazhou","isBusiness":0,"isHot":0,"isTaxi":0,"latitude":"31.209484","longitude":"107.502262","showCityName":"\u8FBE\u5DDE","status":1},{"baiduLatitude":"29.706805526533188","baiduLongitude":"105.7217320589462","cityId":"396","cityName":"\u5927\u8DB3","citySpell":"dazu","isBusiness":0,"isHot":0,"isTaxi":0,"latitude":"29.700498","longitude":"105.715319","showCityName":"\u5927\u8DB3","status":1},{"baiduLatitude":"43.798972175055994","baiduLongitude":"87.62414772921913","cityId":"470","cityName":"\u65B0\u7586\u4E4C\u9C81\u6728\u9F50\u7F8A\u8089","citySpell":"db","isBusiness":0,"isHot":0,"isTaxi":0,"latitude":"43.792818","longitude":"87.617733","showCityName":"\u65B0\u7586\u4E4C\u9C81\u6728\u9F50\u7F8A\u8089","status":1},{"cityId":"727","cityName":"\u7A3B\u57CE","citySpell":"dch","isBusiness":1,"isHot":0,"isTaxi":0,"showCityName":"\u7A3B\u57CE","status":2},{"baiduLatitude":"39.08999206343996","baiduLongitude":"117.20751823224299","cityId":"745","cityName":"\u55EF\u55EF","citySpell":"dddddxxxx","isBusiness":1,"isHot":0,"isTaxi":0,"latitude":"39.084158","longitude":"117.200983","showCityName":"\u55EF\u55EF\u54C8","status":1},{"baiduLatitude":"24.44239565976544","baiduLongitude":"98.58492115186208","cityId":"584","cityName":"\u5FB7\u5B8F\u50A3\u65CF\u666F\u9887\u65CF\u81EA\u6CBB\u5DDE","citySpell":"dehongdaizujingpozu","isBusiness":0,"isHot":0,"isTaxi":0,"latitude":"24.436694","longitude":"98.578363","showCityName":"\u5FB7\u5B8F\u50A3\u65CF\u666F\u9887\u65CF","status":1},{"baiduLatitude":"32.687911044908205","baiduLongitude":"112.09915463778526","cityId":"441","cityName":"\u9093\u5DDE","citySpell":"dengzhou","isBusiness":0,"isHot":0,"isTaxi":0,"latitude":"32.681642","longitude":"112.092716","showCityName":"\u9093\u5DDE","status":1},{"baiduLatitude":"31.134306776072847","baiduLongitude":"104.40506912130668","cityId":"264","cityName":"\u5FB7\u9633","citySpell":"deyang","isBusiness":0,"isHot":0,"isTaxi":0,"latitude":"31.127991","longitude":"104.398651","showCityName":"\u5FB7\u9633","status":1},{"baiduLatitude":"37.43987711181048","baiduLongitude":"116.36402673684015","cityId":"373","cityName":"\u5FB7\u5DDE","citySpell":"dezhou","isBusiness":0,"isHot":0,"isTaxi":1,"latitude":"37.434092","longitude":"116.357464","showCityName":"\u5FB7\u5DDE","status":2},{"baiduLatitude":"19.690673808831114","baiduLongitude":"110.35579234611644","cityId":"582","cityName":"\u5B9A\u5B89\u53BF","citySpell":"dinganxian","isBusiness":0,"isHot":0,"isTaxi":0,"latitude":"19.684966","longitude":"110.349235","showCityName":"\u5B9A\u5B89\u53BF","status":1},{"baiduLatitude":"35.58581460497769","baiduLongitude":"104.63271400573089","cityId":"586","cityName":"\u5B9A\u897F","citySpell":"dingxi","isBusiness":0,"isHot":0,"isTaxi":0,"latitude":"35.579578","longitude":"104.626294","showCityName":"\u5B9A\u897F","status":1},{"baiduLatitude":"27.833076659819252","baiduLongitude":"99.71288738779361","cityId":"585","cityName":"\u8FEA\u5E86\u85CF\u65CF\u81EA\u6CBB\u5DDE","citySpell":"diqingzangzu","isBusiness":0,"isHot":0,"isTaxi":0,"latitude":"27.826853","longitude":"99.706463","showCityName":"\u8FEA\u5E86\u85CF\u65CF","status":1},{"baiduLatitude":"19.10767428605722","baiduLongitude":"108.66036128832734","cityId":"583","cityName":"\u4E1C\u65B9","citySpell":"dongfang","isBusiness":0,"isHot":0,"isTaxi":0,"latitude":"19.10198","longitude":"108.653789","showCityName":"\u4E1C\u65B9","status":1},{"baiduLatitude":"35.43180178684694","baiduLongitude":"119.46432729692589","cityId":"415","cityName":"\u4E1C\u6E2F","citySpell":"donggang","isBusiness":0,"isHot":0,"isTaxi":0,"latitude":"35.426152","longitude":"119.457703","showCityName":"\u4E1C\u6E2F","status":1},{"baiduLatitude":"23.052495972416533","baiduLongitude":"113.75271627893692","cityId":"229","cityName":"\u4E1C\u839E","citySpell":"dongguan","isBusiness":1,"isHot":0,"isTaxi":0,"latitude":"23.046238","longitude":"113.746262","showCityName":"\u4E1C\u839E","status":2},{"baiduLatitude":"37.44081018502329","baiduLongitude":"118.67112644811891","cityId":"170","cityName":"\u4E1C\u8425","citySpell":"dongying","isBusiness":0,"isHot":0,"isTaxi":0,"latitude":"37.434564","longitude":"118.664710","showCityName":"\u4E1C\u8425","status":2},{"baiduLatitude":"30.99686104243304","baiduLongitude":"103.63450226316199","cityId":"370","cityName":"\u90FD\u6C5F\u5830","citySpell":"dujiangyan","isBusiness":0,"isHot":0,"isTaxi":0,"latitude":"30.991140","longitude":"103.627898","showCityName":"\u90FD\u6C5F\u5830","status":1},{"baiduLatitude":"40.14731163369778","baiduLongitude":"94.67069604394572","cityId":"417","cityName":"\u6566\u714C","citySpell":"dunhuang","isBusiness":0,"isHot":0,"isTaxi":0,"latitude":"40.141119","longitude":"94.664279","showCityName":"\u6566\u714C","status":2},{"baiduLatitude":"42.20374071184868","baiduLongitude":"116.48385098458975","cityId":"413","cityName":"\u591A\u4F26","citySpell":"duolun","isBusiness":0,"isHot":0,"isTaxi":0,"latitude":"42.197962","longitude":"116.477288","showCityName":"\u591A\u4F26","status":1},{"baiduLatitude":"26.264519321224025","baiduLongitude":"107.52342551786685","cityId":"398","cityName":"\u90FD\u5300","citySpell":"duyun","isBusiness":0,"isHot":0,"isTaxi":0,"latitude":"26.258205","longitude":"107.517021","showCityName":"\u90FD\u5300","status":1},{"cityId":"505","cityName":"\u8FBE\u53BF","citySpell":"dx","isBusiness":1,"isHot":0,"isTaxi":0,"showCityName":"\u8FBE\u53BF","status":2},{"baiduLatitude":"39.82289142487561","baiduLongitude":"109.99687304334836","cityId":"478","cityName":"\u5B89\u5E86","citySpell":"ee","isBusiness":0,"isHot":0,"isTaxi":0,"latitude":"39.817181","longitude":"109.990288","showCityName":"\u9102\u5C14\u591A\u65AF\u9102\u9102\u9102","status":3},{"baiduLatitude":"39.614572571879485","baiduLongitude":"109.78735094229711","cityId":"59","cityName":"\u9102\u5C14\u591A\u65AF","citySpell":"eerduosi","isBusiness":1,"isHot":0,"isTaxi":0,"latitude":"39.6083916563","longitude":"109.7809071714","showCityName":"\u9102\u5C14\u591A\u65AF","status":2},{"baiduLatitude":"30.288862969390923","baiduLongitude":"109.4935754807464","cityId":"212","cityName":"\u6069\u65BD","citySpell":"enshi","isBusiness":0,"isHot":0,"isTaxi":0,"latitude":"30.283114","longitude":"109.486990","showCityName":"\u6069\u65BD","status":2},{"baiduLatitude":"28.648897002652483","baiduLongitude":"115.95446691409269","cityId":"734","cityName":"\u897F\u85CF","citySpell":"eva","isBusiness":1,"isHot":0,"isTaxi":0,"latitude":"28.642865","longitude":"115.947994","showCityName":"\u65B0\u5EFA\u7684\u57CE\u5E02","status":3},{"baiduLatitude":"30.402237117881302","baiduLongitude":"114.89719156307461","cityId":"590","cityName":"\u9102\u5DDE","citySpell":"ezhou","isBusiness":0,"isHot":0,"isTaxi":0,"latitude":"30.396536","longitude":"114.890593","showCityName":"\u9102\u5DDE","status":1},{"baiduLatitude":"21.62086922801788","baiduLongitude":"108.35194461340284","cityId":"243","cityName":"\u9632\u57CE\u6E2F","citySpell":"fangchenggang","isBusiness":0,"isHot":0,"isTaxi":0,"latitude":"21.614631","longitude":"108.345478","showCityName":"\u9632\u57CE\u6E2F","status":1},{"baiduLatitude":"31.72538791132697","baiduLongitude":"117.17270600334699","cityId":"433","cityName":"\u80A5\u897F","citySpell":"feixi","isBusiness":0,"isHot":0,"isTaxi":0,"latitude":"31.719646","longitude":"117.166118","showCityName":"\u80A5\u897F","status":1},{"baiduLatitude":"23.03463451887243","baiduLongitude":"113.129233827498","cityId":"227","cityName":"\u4F5B\u5C71","citySpell":"foshan","isBusiness":1,"isHot":0,"isTaxi":0,"latitude":"23.028763","longitude":"113.122719","showCityName":"\u4F5B\u5C71","status":2},{"baiduLatitude":"29.709961774489518","baiduLongitude":"107.40131537721052","cityId":"440","cityName":"\u6DAA\u9675","citySpell":"fuling","isBusiness":0,"isHot":0,"isTaxi":0,"latitude":"29.703652","longitude":"107.394905","showCityName":"\u6DAA\u9675","status":1},{"baiduLatitude":"25.726533805549195","baiduLongitude":"119.38348110046738","cityId":"414","cityName":"\u798F\u6E05","citySpell":"fuqing","isBusiness":0,"isHot":0,"isTaxi":0,"latitude":"25.720402","longitude":"119.376992","showCityName":"\u798F\u6E05","status":1},{"baiduLatitude":"41.8817877705293","baiduLongitude":"123.92766141190417","cityId":"67","cityName":"\u629A\u987A","citySpell":"fushun","isBusiness":0,"isHot":0,"isTaxi":0,"latitude":"41.875956","longitude":"123.921109","showCityName":"\u629A\u987A","status":1},{"baiduLatitude":"42.01777995589049","baiduLongitude":"121.65547979432857","cityId":"591","cityName":"\u961C\u65B0","citySpell":"fuxin","isBusiness":0,"isHot":0,"isTaxi":0,"latitude":"42.011796","longitude":"121.648962","showCityName":"\u961C\u65B0","status":1},{"baiduLatitude":"32.90315122287009","baiduLongitude":"115.82619337847669","cityId":"142","cityName":"\u961C\u9633","citySpell":"fuyang","isBusiness":0,"isHot":0,"isTaxi":0,"latitude":"32.896969","longitude":"115.819729","showCityName":"\u961C\u9633","status":2},{"baiduLatitude":"30.055560592661283","baiduLongitude":"119.95645719228641","cityId":"402","cityName":"\u5BCC\u9633","citySpell":"fuyang","isBusiness":0,"isHot":0,"isTaxi":0,"latitude":"30.049871","longitude":"119.949869","showCityName":"\u5BCC\u9633","status":1},{"baiduLatitude":"26.081376135509938","baiduLongitude":"119.31274248536852","cityId":"13","cityName":"\u798F\u5DDE","citySpell":"fuzhou","isBusiness":1,"isHot":0,"isTaxi":0,"latitude":"26.075302","longitude":"119.306239","showCityName":"\u798F\u5DDE","status":2},{"baiduLatitude":"27.989654479517128","baiduLongitude":"116.36491753488566","cityId":"164","cityName":"\u629A\u5DDE","citySpell":"fuzhou","isBusiness":0,"isHot":0,"isTaxi":0,"latitude":"27.983850","longitude":"116.358351","showCityName":"\u629A\u5DDE","status":1},{"baiduLatitude":"34.9920930426318","baiduLongitude":"102.9175898175791","cityId":"595","cityName":"\u7518\u5357\u85CF\u65CF\u81EA\u6CBB\u5DDE","citySpell":"gannanzangzu","isBusiness":0,"isHot":0,"isTaxi":0,"latitude":"34.986354","longitude":"102.911008","showCityName":"\u7518\u5357\u85CF\u65CF","status":1},{"baiduLatitude":"25.857148737252437","baiduLongitude":"114.94674713574848","cityId":"341","cityName":"\u8D63\u5DDE","citySpell":"ganzhou","isBusiness":0,"isHot":0,"isTaxi":0,"latitude":"25.850970","longitude":"114.940278","showCityName":"\u8D63\u5DDE","status":2},{"baiduLatitude":"30.056568316105107","baiduLongitude":"101.9703526973374","cityId":"597","cityName":"\u7518\u5B5C\u85CF\u65CF\u81EA\u6CBB\u5DDE","citySpell":"ganzizangzu","isBusiness":0,"isHot":0,"isTaxi":0,"latitude":"30.050663","longitude":"101.963815","showCityName":"\u7518\u5B5C\u85CF\u65CF","status":1},{"baiduLatitude":"30.4621481393263","baiduLongitude":"106.63992072083404","cityId":"592","cityName":"\u5E7F\u5B89","citySpell":"guangan","isBusiness":0,"isHot":0,"isTaxi":0,"latitude":"30.456398","longitude":"106.633369","showCityName":"\u5E7F\u5B89","status":1},{"baiduLatitude":"32.43994666435022","baiduLongitude":"105.83619213085271","cityId":"509","cityName":"\u5E7F\u5143","citySpell":"guangyuan","isBusiness":0,"isHot":0,"isTaxi":0,"latitude":"32.433668","longitude":"105.829757","showCityName":"\u5E7F\u5143","status":1},{"baiduLatitude":"23.13529321856758","baiduLongitude":"113.27079657954066","cityId":"14","cityName":"\u5E7F\u5DDE","citySpell":"guangzhou","isBusiness":1,"isHot":1,"isTaxi":0,"latitude":"23.1290650841","longitude":"113.2643635541","showCityName":"\u5E7F\u5DDE","status":2},{"baiduLatitude":"23.099406060613052","baiduLongitude":"109.6086935853557","cityId":"593","cityName":"\u8D35\u6E2F","citySpell":"guigang","isBusiness":0,"isHot":0,"isTaxi":0,"latitude":"23.0936","longitude":"109.602146","showCityName":"\u8D35\u6E2F","status":1},{"baiduLatitude":"25.28039043152162","baiduLongitude":"110.30556690079959","cityId":"247","cityName":"\u6842\u6797","citySpell":"guilin","isBusiness":1,"isHot":0,"isTaxi":0,"latitude":"25.274215","longitude":"110.299121","showCityName":"\u6842\u6797","status":2},{"baiduLatitude":"26.584285440511557","baiduLongitude":"106.71999412187614","cityId":"339","cityName":"\u8D35\u9633","citySpell":"guiyang","isBusiness":1,"isHot":0,"isTaxi":0,"latitude":"26.578343","longitude":"106.713478","showCityName":"\u8D35\u9633","status":2},{"baiduLatitude":"26.60423333739781","baiduLongitude":"106.71388339701096","cityId":"761","cityName":"\u8D35\u5DDE","citySpell":"guizhou","isBusiness":1,"isHot":0,"isTaxi":0,"latitude":"26.598194","longitude":"106.707410","showCityName":"\u8D35\u5DDE","status":2},{"baiduLatitude":"34.47942780965902","baiduLongitude":"100.24872299167568","cityId":"594","cityName":"\u679C\u6D1B\u85CF\u65CF\u81EA\u6CBB\u5DDE","citySpell":"guoluozangzu","isBusiness":0,"isHot":0,"isTaxi":0,"latitude":"34.4736","longitude":"100.242143","showCityName":"\u679C\u6D1B\u85CF\u65CF","status":1},{"baiduLatitude":"36.02166425652378","baiduLongitude":"106.24919024709241","cityId":"596","cityName":"\u56FA\u539F","citySpell":"guyuan","isBusiness":1,"isHot":0,"isTaxi":0,"latitude":"36.015855","longitude":"106.242610","showCityName":"\u56FA\u539F","status":2},{"baiduLatitude":"45.80940205097404","baiduLongitude":"126.54158185125203","cityId":"25","cityName":"\u54C8\u5C14\u6EE8","citySpell":"haerbin","isBusiness":1,"isHot":0,"isTaxi":0,"latitude":"45.803775","longitude":"126.534967","showCityName":"\u54C8\u5C14\u6EE8","status":2},{"baiduLatitude":"36.96560044391398","baiduLongitude":"100.90749776874338","cityId":"600","cityName":"\u6D77\u5317\u85CF\u65CF\u81EA\u6CBB\u5DDE","citySpell":"haibeizangzu","isBusiness":0,"isHot":0,"isTaxi":0,"latitude":"36.959435","longitude":"100.901059","showCityName":"\u6D77\u5317\u85CF\u65CF","status":1},{"baiduLatitude":"20.037673144059315","baiduLongitude":"110.33773578304866","cityId":"16","cityName":"\u6D77\u53E3","citySpell":"haikou","isBusiness":1,"isHot":0,"isTaxi":0,"latitude":"20.031971","longitude":"110.331190","showCityName":"\u6D77\u53E3","status":2},{"baiduLatitude":"36.28605703927085","baiduLongitude":"100.62616692637098","cityId":"608","cityName":"\u6D77\u5357\u85CF\u65CF\u81EA\u6CBB\u5DDE","citySpell":"hainanzangzu","isBusiness":0,"isHot":0,"isTaxi":0,"latitude":"36.280353","longitude":"100.619542","showCityName":"\u6D77\u5357\u85CF\u65CF","status":1},{"baiduLatitude":"30.53152503056636","baiduLongitude":"120.69533996400226","cityId":"375","cityName":"\u6D77\u5B81","citySpell":"haining","isBusiness":1,"isHot":0,"isTaxi":0,"latitude":"30.525544","longitude":"120.688821","showCityName":"\u6D77\u5B81","status":2},{"baiduLatitude":"37.38040621201136","baiduLongitude":"97.37738947359479","cityId":"610","cityName":"\u6D77\u897F\u8499\u53E4\u65CF\u85CF\u65CF\u81EA\u6CBB\u5DDE","citySpell":"haiximengguzuzangzu","isBusiness":0,"isHot":0,"isTaxi":0,"latitude":"37.374663","longitude":"97.370785","showCityName":"\u6D77\u897F\u8499\u53E4\u65CF\u85CF\u65CF","status":1},{"baiduLatitude":"38.973582232728354","baiduLongitude":"98.27856831807496","cityId":"719","cityName":"\u54C8\u62C9","citySpell":"hala","isBusiness":1,"isHot":0,"isTaxi":0,"latitude":"38.967319","longitude":"98.272194","showCityName":"\u54C8\u62C9","status":3},{"baiduLatitude":"44.30259902693876","baiduLongitude":"125.58045460746844","cityId":"720","cityName":"\u54C8\u62C9\u54C8\u62C9","citySpell":"halahala","isBusiness":1,"isHot":0,"isTaxi":0,"latitude":"44.296951","longitude":"125.573814","showCityName":"\u54C8\u62C9\u54C8\u62C9","status":3},{"baiduLatitude":"42.83919891066961","baiduLongitude":"93.51967486899119","cityId":"606","cityName":"\u54C8\u5BC6\u5730\u533A","citySpell":"hamidiqu","isBusiness":0,"isHot":0,"isTaxi":0,"latitude":"42.833248","longitude":"93.51316","showCityName":"\u54C8\u5BC6\u5730\u533A","status":1},{"baiduLatitude":"36.61856774707377","baiduLongitude":"114.49710432794738","cityId":"35","cityName":"\u90AF\u90F8","citySpell":"handan","isBusiness":1,"isHot":0,"isTaxi":0,"latitude":"36.612273","longitude":"114.490686","showCityName":"\u90AF\u90F8","status":2},{"baiduLatitude":"30.27999420434418","baiduLongitude":"120.16161278003412","cityId":"8","cityName":"\u676D\u5DDE","citySpell":"hangzhou","isBusiness":1,"isHot":1,"isTaxi":0,"latitude":"30.274084","longitude":"120.155070","showCityName":"\u676D\u5DDE","status":2},{"baiduLatitude":"31.733843004426816","baiduLongitude":"118.1120345482751","cityId":"411","cityName":"\u542B\u5C71","citySpell":"hanshan","isBusiness":0,"isHot":0,"isTaxi":0,"latitude":"31.727758","longitude":"118.105545","showCityName":"\u542B\u5C71","status":1},{"baiduLatitude":"33.08392904544312","baiduLongitude":"107.03502360338179","cityId":"304","cityName":"\u6C49\u4E2D","citySpell":"hanzhong","isBusiness":0,"isHot":0,"isTaxi":0,"latitude":"33.077668","longitude":"107.028621","showCityName":"\u6C49\u4E2D","status":2},{"baiduLatitude":"35.75389937441598","baiduLongitude":"114.30203717912981","cityId":"599","cityName":"\u9E64\u58C1","citySpell":"hebi","isBusiness":0,"isHot":0,"isTaxi":0,"latitude":"35.748236","longitude":"114.295444","showCityName":"\u9E64\u58C1","status":1},{"baiduLatitude":"24.70157253578271","baiduLongitude":"108.06866006299103","cityId":"601","cityName":"\u6CB3\u6C60","citySpell":"hechi","isBusiness":0,"isHot":0,"isTaxi":0,"latitude":"24.695899","longitude":"108.062105","showCityName":"\u6CB3\u6C60","status":1},{"baiduLatitude":"31.86696764684733","baiduLongitude":"117.28960111388676","cityId":"26","cityName":"\u5408\u80A5","citySpell":"hefei","isBusiness":1,"isHot":0,"isTaxi":0,"latitude":"31.861190","longitude":"117.283042","showCityName":"\u5408\u80A5","status":2},{"baiduLatitude":"47.33784961521771","baiduLongitude":"130.28408108753845","cityId":"603","cityName":"\u9E64\u5C97","citySpell":"hegang","isBusiness":0,"isHot":0,"isTaxi":0,"latitude":"47.332085","longitude":"130.277487","showCityName":"\u9E64\u5C97","status":1},{"cityId":"504","cityName":"\u9ED1\u6CB3","citySpell":"heihe","isBusiness":0,"isHot":0,"isTaxi":0,"showCityName":"\u9ED1\u6CB3","status":2},{"baiduLatitude":"50.255195671503024","baiduLongitude":"127.50565494831152","cityId":"604","cityName":"\u9ED1\u6CB3","citySpell":"heihe","isBusiness":0,"isHot":0,"isTaxi":0,"latitude":"50.249585","longitude":"127.499023","showCityName":"\u9ED1\u6CB3","status":1},{"baiduLatitude":"40.3865142327067","baiduLongitude":"111.83056098527533","cityId":"430","cityName":"\u548C\u6797\u683C\u5C14","citySpell":"helingeer","isBusiness":0,"isHot":0,"isTaxi":0,"latitude":"40.380288","longitude":"111.824143","showCityName":"\u548C\u6797\u683C\u5C14","status":1},{"baiduLatitude":"37.74135635957343","baiduLongitude":"115.67241372732555","cityId":"42","cityName":"\u8861\u6C34","citySpell":"hengshui","isBusiness":0,"isHot":0,"isTaxi":0,"latitude":"37.735097","longitude":"115.665993","showCityName":"\u8861\u6C34","status":1},{"baiduLatitude":"26.906091989538126","baiduLongitude":"112.61427454317398","cityId":"221","cityName":"\u8861\u9633","citySpell":"hengyang","isBusiness":0,"isHot":0,"isTaxi":0,"latitude":"26.900358","longitude":"112.607693","showCityName":"\u8861\u9633","status":1},{"baiduLatitude":"37.11692591614828","baiduLongitude":"79.93174110327142","cityId":"609","cityName":"\u548C\u7530\u5730\u533A","citySpell":"hetiandiqu","isBusiness":0,"isHot":0,"isTaxi":0,"latitude":"37.110687","longitude":"79.92533","showCityName":"\u548C\u7530\u5730\u533A","status":1},{"baiduLatitude":"23.752400018125364","baiduLongitude":"114.70426080000243","cityId":"233","cityName":"\u6CB3\u6E90","citySpell":"heyuan","isBusiness":0,"isHot":0,"isTaxi":0,"latitude":"23.746266","longitude":"114.697802","showCityName":"\u6CB3\u6E90","status":1},{"baiduLatitude":"35.25253648248995","baiduLongitude":"115.47585875949007","cityId":"612","cityName":"\u83CF\u6CFD","citySpell":"heze","isBusiness":0,"isHot":0,"isTaxi":0,"latitude":"35.246531","longitude":"115.469381","showCityName":"\u83CF\u6CFD","status":1},{"baiduLatitude":"24.41987212660873","baiduLongitude":"111.55862102764745","cityId":"611","cityName":"\u8D3A\u5DDE","citySpell":"hezhou","isBusiness":0,"isHot":0,"isTaxi":0,"latitude":"24.414141","longitude":"111.552056","showCityName":"\u8D3A\u5DDE","status":1},{"baiduLatitude":"30.13515386128743","baiduLongitude":"104.63407253747091","cityId":"732","cityName":"\u662F\u5417","citySpell":"hh","isBusiness":1,"isHot":0,"isTaxi":1,"latitude":"30.128901","longitude":"104.627636","showCityName":"\u8D44\u9633\u554A\u662F\u4E0D\u662F","status":1},{"baiduLatitude":"49.242905561353616","baiduLongitude":"119.7455893375417","cityId":"526","cityName":"\u6D77\u62C9\u5C14","citySpell":"hle","isBusiness":0,"isHot":0,"isTaxi":0,"latitude":"49.236733","longitude":"119.739140","showCityName":"\u6D77\u62C9\u5C14","status":3},{"baiduLatitude":"42.83919891066961","baiduLongitude":"93.51967486899119","cityId":"525","cityName":"\u54C8\u5BC6","citySpell":"hm","isBusiness":1,"isHot":0,"isTaxi":0,"latitude":"42.833248","longitude":"93.513160","showCityName":"\u54C8\u5BC6","status":2},{"baiduLatitude":"23.372467906808296","baiduLongitude":"103.39073119554209","cityId":"605","cityName":"\u7EA2\u6CB3\u54C8\u5C3C\u65CF\u5F5D\u65CF\u81EA\u6CBB\u5DDE","citySpell":"honghehanizuyizu","isBusiness":0,"isHot":0,"isTaxi":0,"latitude":"23.366775","longitude":"103.384182","showCityName":"\u7EA2\u6CB3\u54C8\u5C3C\u65CF\u5F5D\u65CF","status":1},{"baiduLatitude":"35.626574363770544","baiduLongitude":"111.37766687191944","cityId":"447","cityName":"\u4FAF\u9A6C\u5E02","citySpell":"houma","isBusiness":1,"isHot":0,"isTaxi":0,"latitude":"35.620302","longitude":"111.371272","showCityName":"\u4FAF\u9A6C","status":2},{"baiduLatitude":"37.11692591614828","baiduLongitude":"79.93174110327142","cityId":"501","cityName":"\u548C\u7530","citySpell":"htt","isBusiness":1,"isHot":0,"isTaxi":0,"latitude":"37.110687","longitude":"79.925330","showCityName":"\u548C\u7530","status":2},{"baiduLatitude":"33.60370389958196","baiduLongitude":"119.02770643035768","cityId":"124","cityName":"\u6DEE\u5B89","citySpell":"huaian","isBusiness":0,"isHot":0,"isTaxi":0,"latitude":"33.597506","longitude":"119.021265","showCityName":"\u6DEE\u5B89","status":2},{"baiduLatitude":"33.977625495458724","baiduLongitude":"116.80119968989283","cityId":"598","cityName":"\u6DEE\u5317","citySpell":"huaibei","isBusiness":0,"isHot":0,"isTaxi":0,"latitude":"33.971707","longitude":"116.794664","showCityName":"\u6DEE\u5317","status":1},{"baiduLatitude":"27.555751017125353","baiduLongitude":"109.98481252673432","cityId":"225","cityName":"\u6000\u5316","citySpell":"huaihua","isBusiness":0,"isHot":0,"isTaxi":0,"latitude":"27.550082","longitude":"109.978240","showCityName":"\u6000\u5316","status":2},{"baiduLatitude":"32.65377749808826","baiduLongitude":"117.02478024501549","cityId":"140","cityName":"\u6DEE\u5357","citySpell":"huainan","isBusiness":0,"isHot":0,"isTaxi":0,"latitude":"32.647574","longitude":"117.018329","showCityName":"\u6DEE\u5357","status":1},{"baiduLatitude":"30.453543610746564","baiduLongitude":"114.88588882272927","cityId":"602","cityName":"\u9EC4\u5188","citySpell":"huanggang","isBusiness":0,"isHot":0,"isTaxi":0,"latitude":"30.447711","longitude":"114.879365","showCityName":"\u9EC4\u5188","status":1},{"baiduLatitude":"35.52389642149567","baiduLongitude":"102.02643243935402","cityId":"607","cityName":"\u9EC4\u5357\u85CF\u65CF\u81EA\u6CBB\u5DDE","citySpell":"huangnanzangzu","isBusiness":0,"isHot":0,"isTaxi":0,"latitude":"35.517744","longitude":"102.019988","showCityName":"\u9EC4\u5357\u85CF\u65CF","status":1},{"baiduLatitude":"29.715588210449475","baiduLongitude":"118.32372772255158","cityId":"416","cityName":"\u9EC4\u5C71","citySpell":"huangshan","isBusiness":1,"isHot":0,"isTaxi":0,"latitude":"29.709239","longitude":"118.317325","showCityName":"\u9EC4\u5C71","status":2},{"baiduLatitude":"30.226410725796374","baiduLongitude":"115.08344170521296","cityId":"207","cityName":"\u9EC4\u77F3","citySpell":"huangshi","isBusiness":0,"isHot":0,"isTaxi":0,"latitude":"30.220074","longitude":"115.077048","showCityName":"\u9EC4\u77F3","status":1},{"baiduLatitude":"40.82403376872376","baiduLongitude":"111.6774197630564","cityId":"54","cityName":"\u547C\u548C\u6D69\u7279","citySpell":"huhehaote","isBusiness":0,"isHot":0,"isTaxi":0,"latitude":"40.818311","longitude":"111.670801","showCityName":"\u547C\u548C\u6D69\u7279","status":2},{"baiduLatitude":"23.08509070452026","baiduLongitude":"114.41917937807027","cityId":"231","cityName":"\u60E0\u5DDE","citySpell":"huizhou","isBusiness":1,"isHot":0,"isTaxi":0,"latitude":"23.079405","longitude":"114.412598","showCityName":"\u60E0\u5DDE","status":2},{"baiduLatitude":"40.71741621921527","baiduLongitude":"120.84333036323837","cityId":"394","cityName":"\u846B\u82A6\u5C9B","citySpell":"huludao","isBusiness":1,"isHot":0,"isTaxi":0,"latitude":"40.711052","longitude":"120.836932","showCityName":"\u846B\u82A6\u5C9B","status":1},{"baiduLatitude":"49.22169609117343","baiduLongitude":"119.76453433891268","cityId":"61","cityName":"\u547C\u4F26\u8D1D\u5C14","citySpell":"hulunbeier","isBusiness":0,"isHot":0,"isTaxi":0,"latitude":"49.215333","longitude":"119.758168","showCityName":"\u547C\u4F26\u8D1D\u5C14","status":1},{"baiduLatitude":"30.87342073621547","baiduLongitude":"120.10886118307123","cityId":"130","cityName":"\u6E56\u5DDE","citySpell":"huzhou","isBusiness":1,"isHot":0,"isTaxi":0,"latitude":"30.867198","longitude":"120.102398","showCityName":"\u6E56\u5DDE","status":2},{"baiduLatitude":"31.8870018964881","baiduLongitude":"120.25073876286","cityId":"759","cityName":"\u6C5F\u9634","citySpell":"jaingyin","isBusiness":1,"isHot":0,"isTaxi":0,"latitude":"31.880655","longitude":"120.244349","showCityName":"\u6C5F\u9634","status":2},{"cityId":"484","cityName":"\u6986\u6797","citySpell":"jd","isBusiness":1,"isHot":0,"isTaxi":0,"showCityName":"\u63A5\u5355","status":2},{"cityId":"482","cityName":"\u662D\u901A","citySpell":"jdsx","isBusiness":1,"isHot":0,"isTaxi":0,"showCityName":"\u63A5\u5355\u4E0A\u9650","status":1},{"cityId":"485","cityName":"\u8944\u6A0A","citySpell":"jdsxcs","isBusiness":1,"isHot":0,"isTaxi":0,"latitude":"","longitude":"","showCityName":"\u52A0\u5355\u4E0A\u9650\u6D4B\u8BD5","status":1},{"baiduLatitude":"46.81538548912741","baiduLongitude":"130.36822342297364","cityId":"95","cityName":"\u4F73\u6728\u65AF","citySpell":"jiamusi","isBusiness":0,"isHot":0,"isTaxi":0,"latitude":"46.809606","longitude":"130.361634","showCityName":"\u4F73\u6728\u65AF","status":2},{"baiduLatitude":"27.11776218517516","baiduLongitude":"114.99284944947026","cityId":"160","cityName":"\u5409\u5B89","citySpell":"jian","isBusiness":0,"isHot":0,"isTaxi":0,"latitude":"27.111699","longitude":"114.986373","showCityName":"\u5409\u5B89","status":1},{"baiduLatitude":"22.59610746062473","baiduLongitude":"113.10152701558086","cityId":"241","cityName":"\u6C5F\u95E8","citySpell":"jiangmen","isBusiness":0,"isHot":0,"isTaxi":0,"latitude":"22.590431","longitude":"113.094942","showCityName":"\u6C5F\u95E8","status":1},{"baiduLatitude":"23.624544021561793","baiduLongitude":"102.82693835744686","cityId":"438","cityName":"\u5EFA\u6C34","citySpell":"jianshui","isBusiness":0,"isHot":0,"isTaxi":0,"latitude":"23.618387","longitude":"102.820493","showCityName":"\u5EFA\u6C34","status":1},{"baiduLatitude":"35.244839176903334","baiduLongitude":"113.24481090402348","cityId":"618","cityName":"\u7126\u4F5C","citySpell":"jiaozuo","isBusiness":0,"isHot":0,"isTaxi":0,"latitude":"35.23904","longitude":"113.238266","showCityName":"\u7126\u4F5C","status":1},{"baiduLatitude":"30.768640491706748","baiduLongitude":"120.75738445933752","cityId":"131","cityName":"\u5609\u5174","citySpell":"jiaxing","isBusiness":0,"isHot":0,"isTaxi":0,"latitude":"30.762653","longitude":"120.750865","showCityName":"\u5609\u5174","status":1},{"baiduLatitude":"39.7928183830781","baiduLongitude":"98.28367961245445","cityId":"418","cityName":"\u5609\u5CEA\u5173","citySpell":"jiayuguan","isBusiness":0,"isHot":0,"isTaxi":0,"latitude":"39.786529","longitude":"98.277304","showCityName":"\u5609\u5CEA\u5173","status":2},{"baiduLatitude":"23.549544582611965","baiduLongitude":"116.3622995621506","cityId":"236","cityName":"\u63ED\u9633","citySpell":"jieyang","isBusiness":0,"isHot":0,"isTaxi":0,"latitude":"23.543778","longitude":"116.355733","showCityName":"\u63ED\u9633","status":2},{"baiduLatitude":"43.902250497640054","baiduLongitude":"125.33257003691799","cityId":"360","cityName":"\u5409\u6797","citySpell":"jilin","isBusiness":1,"isHot":0,"isTaxi":0,"latitude":"43.896536","longitude":"125.325990","showCityName":"\u5409\u6797","status":2},{"baiduLatitude":"36.6575700112259","baiduLongitude":"117.12639751834158","cityId":"5","cityName":"\u6D4E\u5357","citySpell":"jinan","isBusiness":1,"isHot":0,"isTaxi":0,"latitude":"36.651216","longitude":"117.119999","showCityName":"\u6D4E\u5357","status":2},{"baiduLatitude":"38.51995511771289","baiduLongitude":"102.19448826593734","cityId":"613","cityName":"\u91D1\u660C","citySpell":"jinchang","isBusiness":0,"isHot":0,"isTaxi":0,"latitude":"38.514238","longitude":"102.187888","showCityName":"\u91D1\u660C","status":1},{"baiduLatitude":"35.50324363435268","baiduLongitude":"112.85785196321642","cityId":"49","cityName":"\u664B\u57CE","citySpell":"jincheng","isBusiness":0,"isHot":0,"isTaxi":0,"latitude":"35.497553","longitude":"112.851274","showCityName":"\u664B\u57CE","status":1},{"baiduLatitude":"29.29864798668517","baiduLongitude":"117.22115461261008","cityId":"614","cityName":"\u666F\u5FB7\u9547","citySpell":"jingdezhen","isBusiness":0,"isHot":0,"isTaxi":0,"latitude":"29.29256","longitude":"117.214664","showCityName":"\u666F\u5FB7\u9547","status":1},{"baiduLatitude":"32.00403852886905","baiduLongitude":"120.25878196997654","cityId":"550","cityName":"\u9756\u6C5F","citySpell":"jingjiang","isBusiness":0,"isHot":0,"isTaxi":0,"latitude":"31.997755","longitude":"120.252374","showCityName":"\u9756\u6C5F","status":1},{"baiduLatitude":"31.041744456489923","baiduLongitude":"112.21064626336307","cityId":"202","cityName":"\u8346\u95E8","citySpell":"jingmen","isBusiness":0,"isHot":0,"isTaxi":0,"latitude":"31.035420","longitude":"112.204251","showCityName":"\u8346\u95E8","status":1},{"baiduLatitude":"30.332712808864834","baiduLongitude":"112.24464852317632","cityId":"208","cityName":"\u8346\u5DDE","citySpell":"jingzhou","isBusiness":0,"isHot":0,"isTaxi":0,"latitude":"30.326857","longitude":"112.238130","showCityName":"\u8346\u5DDE","status":1},{"baiduLatitude":"29.085395215450205","baiduLongitude":"119.65388159579453","cityId":"724","cityName":"\u91D1\u534E","citySpell":"jinhuashi","isBusiness":0,"isHot":0,"isTaxi":1,"latitude":"29.079059","longitude":"119.647445","showCityName":"\u91D1\u534E\u5E02","status":1},{"baiduLatitude":"35.42107229802695","baiduLongitude":"116.59385749948785","cityId":"180","cityName":"\u6D4E\u5B81","citySpell":"jining","isBusiness":0,"isHot":0,"isTaxi":0,"latitude":"35.415393","longitude":"116.587245","showCityName":"\u6D4E\u5B81","status":2},{"baiduLatitude":"24.78774650651673","baiduLongitude":"118.55843034706578","cityId":"367","cityName":"\u664B\u6C5F","citySpell":"jinjiang","isBusiness":0,"isHot":0,"isTaxi":0,"latitude":"24.7814219052","longitude":"118.5519997201","showCityName":"\u664B\u6C5F","status":2},{"baiduLatitude":"37.70216738895254","baiduLongitude":"112.74309057730119","cityId":"46","cityName":"\u664B\u4E2D","citySpell":"jinzhong","isBusiness":0,"isHot":0,"isTaxi":0,"latitude":"37.696495","longitude":"112.736465","showCityName":"\u664B\u4E2D","status":1},{"baiduLatitude":"41.12490914672608","baiduLongitude":"121.1423462771608","cityId":"378","cityName":"\u9526\u5DDE","citySpell":"jinzhou","isBusiness":0,"isHot":0,"isTaxi":0,"latitude":"41.119269","longitude":"121.135742","showCityName":"\u9526\u5DDE","status":2},{"baiduLatitude":"29.71125960723557","baiduLongitude":"116.00800710673626","cityId":"161","cityName":"\u4E5D\u6C5F","citySpell":"jiujiang","isBusiness":1,"isHot":0,"isTaxi":0,"latitude":"29.7054112407","longitude":"116.0014740484","showCityName":"\u4E5D\u6C5F","status":2},{"baiduLatitude":"39.750291985366836","baiduLongitude":"98.51720699672448","cityId":"615","cityName":"\u9152\u6CC9","citySpell":"jiuquan","isBusiness":0,"isHot":0,"isTaxi":0,"latitude":"39.744023","longitude":"98.510795","showCityName":"\u9152\u6CC9","status":1},{"baiduLatitude":"33.26789754300718","baiduLongitude":"104.24292686875401","cityId":"275","cityName":"\u4E5D\u5BE8\u6C9F","citySpell":"jiuzhaigou","isBusiness":1,"isHot":0,"isTaxi":0,"latitude":"33.262097","longitude":"104.236344","showCityName":"\u4E5D\u5BE8\u6C9F","status":2},{"baiduLatitude":"45.30566178862312","baiduLongitude":"130.9825988337938","cityId":"616","cityName":"\u9E21\u897F","citySpell":"jixi","isBusiness":0,"isHot":0,"isTaxi":0,"latitude":"45.300046","longitude":"130.975966","showCityName":"\u9E21\u897F","status":1},{"baiduLatitude":"35.09638004168581","baiduLongitude":"112.59655647699991","cityId":"617","cityName":"\u6D4E\u6E90","citySpell":"jiyuan","isBusiness":1,"isHot":0,"isTaxi":0,"latitude":"35.090378","longitude":"112.590047","showCityName":"\u6D4E\u6E90","status":2},{"baiduLatitude":"19.264102666590016","baiduLongitude":"110.48119130816163","cityId":"746","cityName":"\u534E\u84E5","citySpell":"k","isBusiness":1,"isHot":0,"isTaxi":1,"latitude":"19.258341","longitude":"110.474648","showCityName":"\u743C\u6D77\u6D4B","status":2},{"baiduLatitude":"34.803241609688406","baiduLongitude":"114.34788516635358","cityId":"474","cityName":"\u5F00\u5C01","citySpell":"kaifeng","isBusiness":1,"isHot":0,"isTaxi":0,"latitude":"34.797049","longitude":"114.341447","showCityName":"\u5F00\u5C01","status":1},{"baiduLatitude":"34.803241609688406","baiduLongitude":"114.34788516635358","cityId":"619","cityName":"\u5F00\u5C01","citySpell":"kaifeng","isBusiness":0,"isHot":0,"isTaxi":0,"latitude":"34.797049","longitude":"114.341447","showCityName":"\u5F00\u5C01","status":1},{"baiduLatitude":"39.473668736793826","baiduLongitude":"75.99562197431615","cityId":"622","cityName":"\u5580\u4EC0\u5730\u533A","citySpell":"kashendiqu","isBusiness":0,"isHot":0,"isTaxi":0,"latitude":"39.467664","longitude":"75.989138","showCityName":"\u5580\u4EC0\u5730\u533A","status":1},{"baiduLatitude":"43.689437642352694","baiduLongitude":"80.64216505381941","cityId":"620","cityName":"\u53EF\u514B\u8FBE\u62C9","citySpell":"kekedala","isBusiness":0,"isHot":0,"isTaxi":0,"latitude":"43.6832","longitude":"80.63579","showCityName":"\u53EF\u514B\u8FBE\u62C9","status":1},{"baiduLatitude":"45.58566570598161","baiduLongitude":"84.89580716879826","cityId":"479","cityName":"\u514B\u62C9\u739B\u4F9D","citySpell":"kelamayi","isBusiness":1,"isHot":0,"isTaxi":0,"latitude":"45.579889","longitude":"84.889207","showCityName":"\u514B\u62C9\u739B\u4F9D","status":2},{"baiduLatitude":"45.60183174242653","baiduLongitude":"84.88047029541161","cityId":"621","cityName":"\u514B\u62C9\u739B\u4F9D","citySpell":"kelamayi","isBusiness":0,"isHot":0,"isTaxi":0,"latitude":"45.595886","longitude":"84.873946","showCityName":"\u514B\u62C9\u739B\u4F9D","status":1},{"baiduLatitude":"39.71946156070083","baiduLongitude":"76.17930146111175","cityId":"623","cityName":"\u514B\u5B5C\u52D2\u82CF\u67EF\u5C14\u514B\u5B5C\u81EA\u6CBB\u5DDE","citySpell":"kezilesukeerkezi","isBusiness":0,"isHot":0,"isTaxi":0,"latitude":"39.713431","longitude":"76.172825","showCityName":"\u514B\u5B5C\u52D2\u82CF\u67EF\u5C14\u514B\u5B5C","status":1},{"baiduLatitude":"39.473668736793826","baiduLongitude":"75.99562197431615","cityId":"513","cityName":"\u5580\u4EC0","citySpell":"ks","isBusiness":1,"isHot":0,"isTaxi":0,"latitude":"39.467664","longitude":"75.989138","showCityName":"\u5580\u4EC0","status":1},{"baiduLatitude":"41.76931500496354","baiduLongitude":"86.15235804902848","cityId":"376","cityName":"\u5E93\u5C14\u52D2","citySpell":"kuerle","isBusiness":0,"isHot":0,"isTaxi":0,"latitude":"41.763122","longitude":"86.145948","showCityName":"\u5E93\u5C14\u52D2","status":2},{"baiduLatitude":"25.046887943661943","baiduLongitude":"102.71866484795655","cityId":"27","cityName":"\u6606\u660E","citySpell":"kunming","isBusiness":1,"isHot":0,"isTaxi":0,"latitude":"25.040609","longitude":"102.712251","showCityName":"\u6606\u660E","status":2},{"baiduLatitude":"31.401330044695573","baiduLongitude":"120.97385521394945","cityId":"366","cityName":"\u6606\u5C71","citySpell":"kunshan","isBusiness":1,"isHot":0,"isTaxi":0,"latitude":"31.394998","longitude":"120.967456","showCityName":"\u6606\u5C71","status":2},{"baiduLatitude":"23.73976574760011","baiduLongitude":"109.23625198478146","cityId":"624","cityName":"\u6765\u5BBE","citySpell":"laibin","isBusiness":0,"isHot":0,"isTaxi":0,"latitude":"23.733766","longitude":"109.229772","showCityName":"\u6765\u5BBE","status":1},{"baiduLatitude":"36.220179836851145","baiduLongitude":"117.68428245653733","cityId":"633","cityName":"\u83B1\u829C","citySpell":"laiwu","isBusiness":0,"isHot":0,"isTaxi":0,"latitude":"36.214397","longitude":"117.677736","showCityName":"\u83B1\u829C","status":1},{"baiduLatitude":"39.543816822732985","baiduLongitude":"116.69033215047149","cityId":"38","cityName":"\u5ECA\u574A","citySpell":"langfang","isBusiness":1,"isHot":0,"isTaxi":0,"latitude":"39.538047","longitude":"116.683752","showCityName":"\u5ECA\u574A","status":2},{"baiduLatitude":"36.06701901940774","baiduLongitude":"103.84082709729252","cityId":"306","cityName":"\u5170\u5DDE","citySpell":"lanzhou","isBusiness":1,"isHot":0,"isTaxi":0,"latitude":"36.061089","longitude":"103.834304","showCityName":"\u5170\u5DDE","status":2},{"baiduLatitude":"29.66611543863634","baiduLongitude":"91.13881033158358","cityId":"297","cityName":"\u62C9\u8428","citySpell":"lasa","isBusiness":0,"isHot":0,"isTaxi":0,"latitude":"29.660361","longitude":"91.132212","showCityName":"\u62C9\u8428","status":2},{"baiduLatitude":"41.25184597037331","baiduLongitude":"119.40768672531769","cityId":"502","cityName":"\u8FDE\u6210","citySpell":"lc","isBusiness":1,"isHot":0,"isTaxi":0,"latitude":"41.2454949822","longitude":"119.4013285435","showCityName":"\u8FDE\u6210","status":1},{"baiduLatitude":"18.75631453480611","baiduLongitude":"109.17956475295681","cityId":"627","cityName":"\u4E50\u4E1C\u9ECE\u65CF\u81EA\u6CBB\u53BF","citySpell":"ledonglizu","isBusiness":1,"isHot":0,"isTaxi":1,"latitude":"18.750259","longitude":"109.173054","showCityName":"\u4E50\u4E1C\u9ECE\u65CF","status":2},{"baiduLatitude":"29.587885932713835","baiduLongitude":"103.76780016260956","cityId":"268","cityName":"\u4E50\u5C71","citySpell":"leshan","isBusiness":0,"isHot":0,"isTaxi":0,"latitude":"29.582024","longitude":"103.761263","showCityName":"\u4E50\u5C71","status":1},{"baiduLatitude":"27.89293585133177","baiduLongitude":"102.26521183500945","cityId":"632","cityName":"\u51C9\u5C71\u5F5D\u65CF\u81EA\u6CBB\u5DDE","citySpell":"liangshanyizu","isBusiness":0,"isHot":0,"isTaxi":0,"latitude":"27.886762","longitude":"102.258746","showCityName":"\u51C9\u5C71\u5F5D\u65CF","status":1},{"baiduLatitude":"34.606220356537484","baiduLongitude":"119.18528027749183","cityId":"636","cityName":"\u8FDE\u4E91\u6E2F","citySpell":"lianyungang","isBusiness":0,"isHot":0,"isTaxi":0,"latitude":"34.600018","longitude":"119.178821","showCityName":"\u8FDE\u4E91\u6E2F","status":1},{"baiduLatitude":"36.46165942053168","baiduLongitude":"115.98695820551252","cityId":"168","cityName":"\u804A\u57CE","citySpell":"liaocheng","isBusiness":0,"isHot":0,"isTaxi":0,"latitude":"36.456013","longitude":"115.980367","showCityName":"\u804A\u57CE","status":1},{"baiduLatitude":"41.27503027758864","baiduLongitude":"123.18813342424608","cityId":"383","cityName":"\u8FBD\u9633","citySpell":"liaoyang","isBusiness":0,"isHot":0,"isTaxi":0,"latitude":"41.269402","longitude":"123.181520","showCityName":"\u8FBD\u9633","status":1},{"baiduLatitude":"42.90896136864723","baiduLongitude":"125.15175368367667","cityId":"635","cityName":"\u8FBD\u6E90","citySpell":"liaoyuan","isBusiness":0,"isHot":0,"isTaxi":0,"latitude":"42.902692","longitude":"125.145349","showCityName":"\u8FBD\u6E90","status":1},{"baiduLatitude":"26.87805847631189","baiduLongitude":"100.23953096220501","cityId":"292","cityName":"\u4E3D\u6C5F","citySpell":"lijiang","isBusiness":1,"isHot":0,"isTaxi":1,"latitude":"26.872108","longitude":"100.233026","showCityName":"\u4E3D\u6C5F","status":2},{"baiduLatitude":"23.892849051443726","baiduLongitude":"100.0934096173063","cityId":"625","cityName":"\u4E34\u6CA7","citySpell":"lincang","isBusiness":0,"isHot":0,"isTaxi":0,"latitude":"23.886567","longitude":"100.08697","showCityName":"\u4E34\u6CA7","status":1},{"baiduLatitude":"36.09000848630932","baiduLongitude":"111.52449874735116","cityId":"51","cityName":"\u4E34\u6C7E","citySpell":"linfen","isBusiness":0,"isHot":0,"isTaxi":0,"latitude":"36.084150","longitude":"111.517973","showCityName":"\u4E34\u6C7E","status":1},{"baiduLatitude":"19.91459364468923","baiduLongitude":"109.69413073853927","cityId":"628","cityName":"\u4E34\u9AD8\u53BF","citySpell":"lingaoxian","isBusiness":0,"isHot":0,"isTaxi":0,"latitude":"19.908293","longitude":"109.687697","showCityName":"\u4E34\u9AD8\u53BF","status":1},{"baiduLatitude":"41.17749475450148","baiduLongitude":"121.37083069677855","cityId":"384","cityName":"\u51CC\u6D77","citySpell":"linghai","isBusiness":0,"isHot":0,"isTaxi":0,"latitude":"41.171738","longitude":"121.364236","showCityName":"\u51CC\u6D77","status":1},{"baiduLatitude":"35.605690892798776","baiduLongitude":"103.2184035249394","cityId":"634","cityName":"\u4E34\u590F\u56DE\u65CF\u81EA\u6CBB\u5DDE","citySpell":"linxiahuizu","isBusiness":0,"isHot":0,"isTaxi":0,"latitude":"35.599446","longitude":"103.212006","showCityName":"\u4E34\u590F\u56DE\u65CF","status":1},{"baiduLatitude":"35.07162248040149","baiduLongitude":"118.33286232676002","cityId":"177","cityName":"\u4E34\u6C82","citySpell":"linyi","isBusiness":0,"isHot":0,"isTaxi":0,"latitude":"35.065282","longitude":"118.326443","showCityName":"\u4E34\u6C82","status":2},{"baiduLatitude":"29.66052663154525","baiduLongitude":"94.36891486730742","cityId":"637","cityName":"\u6797\u829D","citySpell":"linzhi","isBusiness":0,"isHot":0,"isTaxi":0,"latitude":"29.654693","longitude":"94.362348","showCityName":"\u6797\u829D","status":1},{"baiduLatitude":"36.06906707859848","baiduLongitude":"113.83036971280848","cityId":"762","cityName":"\u6797\u5DDE","citySpell":"linzhou","isBusiness":1,"isHot":0,"isTaxi":0,"latitude":"36.063403","longitude":"113.823767","showCityName":"\u6797\u5DDE","status":2},{"baiduLatitude":"28.45778752205466","baiduLongitude":"119.92834682633533","cityId":"631","cityName":"\u4E3D\u6C34","citySpell":"lishui","isBusiness":0,"isHot":0,"isTaxi":0,"latitude":"28.451993","longitude":"119.921786","showCityName":"\u4E3D\u6C34","status":1},{"baiduLatitude":"31.759164958377685","baiduLongitude":"116.51408783858176","cityId":"146","cityName":"\u516D\u5B89","citySpell":"liuan","isBusiness":0,"isHot":0,"isTaxi":0,"latitude":"31.752889","longitude":"116.507676","showCityName":"\u516D\u5B89","status":1},{"baiduLatitude":"26.590588435873414","baiduLongitude":"104.85325186837325","cityId":"630","cityName":"\u516D\u76D8\u6C34","citySpell":"liupanshui","isBusiness":0,"isHot":0,"isTaxi":0,"latitude":"26.584643","longitude":"104.846743","showCityName":"\u516D\u76D8\u6C34","status":1},{"baiduLatitude":"28.147431863390015","baiduLongitude":"113.63972058686203","cityId":"408","cityName":"\u6D4F\u9633","citySpell":"liuyang","isBusiness":0,"isHot":0,"isTaxi":0,"latitude":"28.141112","longitude":"113.633301","showCityName":"\u6D4F\u9633","status":1},{"baiduLatitude":"24.3206432237478","baiduLongitude":"109.41818297855379","cityId":"246","cityName":"\u67F3\u5DDE","citySpell":"liuzhou","isBusiness":0,"isHot":0,"isTaxi":0,"latitude":"24.314617","longitude":"109.411703","showCityName":"\u67F3\u5DDE","status":2},{"baiduLatitude":"40.200619584694834","baiduLongitude":"117.95955346516872","cityId":"736","cityName":"\u6211\u7684","citySpell":"ll","isBusiness":0,"isHot":0,"isTaxi":0,"latitude":"40.194290","longitude":"117.953172","showCityName":"\u4E50","status":3},{"baiduLatitude":"24.451468752947868","baiduLongitude":"117.82374567187257","cityId":"431","cityName":"\u9F99\u6D77","citySpell":"longhai","isBusiness":0,"isHot":0,"isTaxi":0,"latitude":"24.445341","longitude":"117.817292","showCityName":"\u9F99\u6D77","status":1},{"baiduLatitude":"33.39433669432804","baiduLongitude":"104.93598307884565","cityId":"629","cityName":"\u9647\u5357","citySpell":"longnan","isBusiness":0,"isHot":0,"isTaxi":0,"latitude":"33.388598","longitude":"104.929379","showCityName":"\u9647\u5357","status":1},{"baiduLatitude":"25.097609437590073","baiduLongitude":"117.03629029607025","cityId":"155","cityName":"\u9F99\u5CA9","citySpell":"longyan","isBusiness":0,"isHot":0,"isTaxi":0,"latitude":"25.091603","longitude":"117.029780","showCityName":"\u9F99\u5CA9","status":1},{"baiduLatitude":"27.733861088380735","baiduLongitude":"112.01507356917648","cityId":"626","cityName":"\u5A04\u5E95","citySpell":"loudi","isBusiness":0,"isHot":0,"isTaxi":0,"latitude":"27.728136","longitude":"112.008497","showCityName":"\u5A04\u5E95","status":1},{"baiduLatitude":"26.236311590027267","baiduLongitude":"109.14307109829464","cityId":"506","cityName":"\u9ECE\u5E73","citySpell":"lp","isBusiness":0,"isHot":0,"isTaxi":0,"latitude":"26.230636","longitude":"109.136504","showCityName":"\u9ECE\u5E73","status":1},{"baiduLatitude":"33.58191362534793","baiduLongitude":"114.03286786040037","cityId":"186","cityName":"\u6F2F\u6CB3","citySpell":"luohe","isBusiness":0,"isHot":0,"isTaxi":0,"latitude":"33.575855","longitude":"114.026405","showCityName":"\u6F2F\u6CB3","status":1},{"baiduLatitude":"34.66935869578528","baiduLongitude":"112.44085650983719","cityId":"182","cityName":"\u6D1B\u9633","citySpell":"luoyang","isBusiness":1,"isHot":0,"isTaxi":0,"latitude":"34.663040","longitude":"112.434471","showCityName":"\u6D1B\u9633","status":2},{"baiduLatitude":"28.895024757648866","baiduLongitude":"105.44985830989344","cityId":"273","cityName":"\u6CF8\u5DDE","citySpell":"luzhou","isBusiness":0,"isHot":0,"isTaxi":0,"latitude":"28.889138","longitude":"105.443348","showCityName":"\u6CF8\u5DDE","status":2},{"baiduLatitude":"37.530603693821455","baiduLongitude":"111.14073454523398","cityId":"50","cityName":"\u5415\u6881","citySpell":"lvliang","isBusiness":0,"isHot":0,"isTaxi":0,"latitude":"37.524366","longitude":"111.134335","showCityName":"\u5415\u6881","status":1},{"baiduLatitude":"31.695038937380616","baiduLongitude":"118.51450213416837","cityId":"389","cityName":"\u9A6C\u978D\u5C71","citySpell":"maanshan","isBusiness":0,"isHot":0,"isTaxi":0,"latitude":"31.689362","longitude":"118.507906","showCityName":"\u9A6C\u978D\u5C71","status":1},{"baiduLatitude":"49.596896928739035","baiduLongitude":"117.46203670032578","cityId":"405","cityName":"\u6EE1\u6D32\u91CC","citySpell":"manzhouli","isBusiness":0,"isHot":0,"isTaxi":0,"latitude":"49.590788","longitude":"117.455561","showCityName":"\u6EE1\u6D32\u91CC","status":2},{"baiduLatitude":"21.66559643703919","baiduLongitude":"110.92575944783799","cityId":"238","cityName":"\u8302\u540D","citySpell":"maoming","isBusiness":0,"isHot":0,"isTaxi":0,"latitude":"21.659751","longitude":"110.919229","showCityName":"\u8302\u540D","status":1},{"baiduLatitude":"30.054292073146406","baiduLongitude":"103.83830745900195","cityId":"638","cityName":"\u7709\u5C71","citySpell":"meishan","isBusiness":0,"isHot":0,"isTaxi":0,"latitude":"30.048318","longitude":"103.831788","showCityName":"\u7709\u5C71","status":1},{"baiduLatitude":"24.304901315179126","baiduLongitude":"116.12412703804684","cityId":"234","cityName":"\u6885\u5DDE","citySpell":"meizhou","isBusiness":0,"isHot":0,"isTaxi":0,"latitude":"24.299112","longitude":"116.117582","showCityName":"\u6885\u5DDE","status":1},{"baiduLatitude":"52.978318509026764","baiduLongitude":"122.54265765302583","cityId":"507","cityName":"\u6F20\u6CB3","citySpell":"mh","isBusiness":0,"isHot":0,"isTaxi":0,"latitude":"52.972073","longitude":"122.536255","showCityName":"\u6F20\u6CB3","status":1},{"baiduLatitude":"31.47020645128654","baiduLongitude":"104.74818585812015","cityId":"392","cityName":"\u7EF5\u9633","citySpell":"mianyang","isBusiness":1,"isHot":0,"isTaxi":0,"latitude":"31.464020","longitude":"104.741722","showCityName":"\u7EF5\u9633","status":3},{"baiduLatitude":"24.442401891957804","baiduLongitude":"98.58416584352743","cityId":"498","cityName":"\u8292\u5E02","citySpell":"ms","isBusiness":0,"isHot":0,"isTaxi":0,"latitude":"24.436699","longitude":"98.577608","showCityName":"\u8292\u5E02","status":1},{"baiduLatitude":"44.5891795308057","baiduLongitude":"129.62502391197575","cityId":"85","cityName":"\u7261\u4E39\u6C5F","citySpell":"mudanjiang","isBusiness":0,"isHot":0,"isTaxi":0,"latitude":"44.582962","longitude":"129.618602","showCityName":"\u7261\u4E39\u6C5F","status":2},{"cityId":"503","cityName":"\u6885\u53BF","citySpell":"mx","isBusiness":1,"isHot":0,"isTaxi":0,"latitude":"90","longitude":"-180","showCityName":"\u6885\u53BF","status":1},{"baiduLatitude":"23.366642723128262","baiduLongitude":"103.36770443438039","cityId":"721","cityName":"\u8499\u81EA","citySpell":"mzg","isBusiness":1,"isHot":0,"isTaxi":0,"latitude":"23.360818","longitude":"103.361183","showCityName":"\u8499\u81EA","status":2},{"baiduLatitude":"30.801590390316647","baiduLongitude":"106.08937195469323","cityId":"397","cityName":"\u5357\u5145","citySpell":"nanchong","isBusiness":1,"isHot":0,"isTaxi":0,"latitude":"30.795280","longitude":"106.082977","showCityName":"\u5357\u5145","status":2},{"baiduLatitude":"32.047496305219596","baiduLongitude":"118.77392754013347","cityId":"7","cityName":"\u5357\u4EAC","citySpell":"nanjing","isBusiness":0,"isHot":0,"isTaxi":0,"latitude":"32.041544","longitude":"118.767413","showCityName":"\u5357\u4EAC","status":2},{"baiduLatitude":"22.829861502028855","baiduLongitude":"108.32655684225323","cityId":"242","cityName":"\u5357\u5B81","citySpell":"nanning","isBusiness":0,"isHot":0,"isTaxi":0,"latitude":"22.824020","longitude":"108.320004","showCityName":"\u5357\u5B81","status":2},{"baiduLatitude":"26.641777945982668","baiduLongitude":"118.18492032561254","cityId":"642","cityName":"\u5357\u5E73","citySpell":"nanping","isBusiness":0,"isHot":0,"isTaxi":0,"latitude":"26.635627","longitude":"118.178459","showCityName":"\u5357\u5E73","status":1},{"baiduLatitude":"31.985825354343856","baiduLongitude":"120.90088251134783","cityId":"122","cityName":"\u5357\u901A","citySpell":"nantong","isBusiness":0,"isHot":0,"isTaxi":0,"latitude":"31.980172","longitude":"120.894291","showCityName":"\u5357\u901A","status":2},{"baiduLatitude":"33.005264394682605","baiduLongitude":"112.54736351692351","cityId":"187","cityName":"\u5357\u9633","citySpell":"nanyang","isBusiness":0,"isHot":0,"isTaxi":0,"latitude":"32.999082","longitude":"112.540918","showCityName":"\u5357\u9633","status":2},{"baiduLatitude":"29.592778976026434","baiduLongitude":"105.07271524188174","cityId":"640","cityName":"\u5185\u6C5F","citySpell":"neijiang","isBusiness":0,"isHot":0,"isTaxi":0,"latitude":"29.58708","longitude":"105.066138","showCityName":"\u5185\u6C5F","status":1},{"baiduLatitude":"31.48214555497895","baiduLongitude":"92.06668570212065","cityId":"643","cityName":"\u90A3\u66F2\u5730\u533A","citySpell":"neiqudiqu","isBusiness":0,"isHot":0,"isTaxi":0,"latitude":"31.476004","longitude":"92.060214","showCityName":"\u90A3\u66F2\u5730\u533A","status":1},{"baiduLatitude":"29.874699064877795","baiduLongitude":"121.5562037972482","cityId":"29","cityName":"\u5B81\u6CE2","citySpell":"ningbo","isBusiness":1,"isHot":0,"isTaxi":0,"latitude":"29.868388","longitude":"121.549792","showCityName":"\u5B81\u6CE2","status":2},{"baiduLatitude":"26.66557789047645","baiduLongitude":"119.53352396108782","cityId":"639","cityName":"\u5B81\u5FB7","citySpell":"ningde","isBusiness":0,"isHot":0,"isTaxi":0,"latitude":"26.65924","longitude":"119.527082","showCityName":"\u5B81\u5FB7","status":1},{"baiduLatitude":"28.26024589324378","baiduLongitude":"112.5596086456048","cityId":"750","cityName":"\u5B81\u4E61","citySpell":"ningxiang","isBusiness":0,"isHot":0,"isTaxi":0,"latitude":"28.253928","longitude":"112.553182","showCityName":"\u5B81\u4E61","status":1},{"baiduLatitude":"25.857017577451728","baiduLongitude":"98.86079550088326","cityId":"641","cityName":"\u6012\u6C5F\u5088\u50F3\u65CF\u81EA\u6CBB\u5DDE","citySpell":"nujianglisuzu","isBusiness":0,"isHot":0,"isTaxi":0,"latitude":"25.850949","longitude":"98.854304","showCityName":"\u6012\u6C5F\u5088\u50F3\u65CF","status":1},{"baiduLatitude":"41.13048612360902","baiduLongitude":"122.07604905420783","cityId":"72","cityName":"\u76D8\u9526","citySpell":"panjin","isBusiness":0,"isHot":0,"isTaxi":0,"latitude":"41.124484","longitude":"122.069570","showCityName":"\u76D8\u9526","status":1},{"baiduLatitude":"26.586241781122453","baiduLongitude":"101.72255988360668","cityId":"648","cityName":"\u6500\u679D\u82B1","citySpell":"panzhihua","isBusiness":0,"isHot":0,"isTaxi":0,"latitude":"26.580446","longitude":"101.716007","showCityName":"\u6500\u679D\u82B1","status":1},{"baiduLatitude":"34.28923914913711","baiduLongitude":"117.21017646669489","cityId":"477","cityName":"\u6D3E\u5355\u57CE\u5E02","citySpell":"pd","isBusiness":0,"isHot":0,"isTaxi":0,"latitude":"34.283359","longitude":"117.203661","showCityName":"\u6D3E\u5355\u57CE\u5E02","status":1},{"baiduLatitude":"33.74128560531951","baiduLongitude":"113.31421966025046","cityId":"644","cityName":"\u5E73\u9876\u5C71","citySpell":"pingdingshan","isBusiness":0,"isHot":0,"isTaxi":0,"latitude":"33.735241","longitude":"113.307718","showCityName":"\u5E73\u9876\u5C71","status":1},{"baiduLatitude":"35.549106324506994","baiduLongitude":"106.69110520996938","cityId":"312","cityName":"\u5E73\u51C9","citySpell":"pingliang","isBusiness":0,"isHot":0,"isTaxi":0,"latitude":"35.542790","longitude":"106.684691","showCityName":"\u5E73\u51C9","status":1},{"baiduLatitude":"38.259977412232146","baiduLongitude":"114.18604623531796","cityId":"742","cityName":"\u5E73\u5C71","citySpell":"pingshan","isBusiness":0,"isHot":0,"isTaxi":0,"latitude":"38.254326","longitude":"114.179450","showCityName":"\u5E73\u5C71","status":1},{"baiduLatitude":"25.50964869528471","baiduLongitude":"119.79769805428187","cityId":"448","cityName":"\u5E73\u6F6D","citySpell":"pingtan","isBusiness":0,"isHot":0,"isTaxi":0,"latitude":"25.503672","longitude":"119.791197","showCityName":"\u5E73\u6F6D","status":1},{"baiduLatitude":"27.628853091401613","baiduLongitude":"113.86105447782785","cityId":"646","cityName":"\u840D\u4E61","citySpell":"pingxiang","isBusiness":1,"isHot":0,"isTaxi":0,"latitude":"27.622768","longitude":"113.854556","showCityName":"\u840D\u4E61","status":1},{"baiduLatitude":"22.78303801569511","baiduLongitude":"100.97888882054983","cityId":"645","cityName":"\u666E\u6D31","citySpell":"puer","isBusiness":0,"isHot":0,"isTaxi":0,"latitude":"22.777321","longitude":"100.972344","showCityName":"\u666E\u6D31","status":1},{"baiduLatitude":"25.436963579059398","baiduLongitude":"119.0140588591745","cityId":"151","cityName":"\u8386\u7530","citySpell":"putian","isBusiness":0,"isHot":0,"isTaxi":0,"latitude":"25.431011","longitude":"119.007558","showCityName":"\u8386\u7530","status":1},{"baiduLatitude":"35.77408463166842","baiduLongitude":"115.04785419360033","cityId":"647","cityName":"\u6FEE\u9633","citySpell":"puyang","isBusiness":0,"isHot":0,"isTaxi":0,"latitude":"35.768234","longitude":"115.041299","showCityName":"\u6FEE\u9633","status":1},{"baiduLatitude":"34.50239630776355","baiduLongitude":"109.47966348043917","cityId":"463","cityName":"\u5343\u5C9B\u6E56","citySpell":"qiandaohu","isBusiness":0,"isHot":0,"isTaxi":0,"latitude":"34.496449","longitude":"109.473143","showCityName":"\u5343\u5C9B\u6E56","status":1},{"baiduLatitude":"26.589474940669607","baiduLongitude":"107.98395413624581","cityId":"649","cityName":"\u9ED4\u4E1C\u5357\u82D7\u65CF\u4F97\u65CF\u81EA\u6CBB\u5DDE","citySpell":"qiandongnanmiaozudongzu","isBusiness":0,"isHot":0,"isTaxi":0,"latitude":"26.583352","longitude":"107.977488","showCityName":"\u9ED4\u4E1C\u5357\u82D7\u65CF\u4F97\u65CF","status":1},{"baiduLatitude":"30.427333823557856","baiduLongitude":"112.9033326648711","cityId":"388","cityName":"\u6F5C\u6C5F","citySpell":"qianjiang","isBusiness":0,"isHot":0,"isTaxi":0,"latitude":"30.421215","longitude":"112.896866","showCityName":"\u6F5C\u6C5F","status":1},{"baiduLatitude":"25.094307277644823","baiduLongitude":"104.90443469124322","cityId":"652","cityName":"\u9ED4\u897F\u5357\u5E03\u4F9D\u65CF\u82D7\u65CF\u81EA\u6CBB\u5DDE","citySpell":"qianxinanbuyizumiaozu","isBusiness":0,"isHot":0,"isTaxi":0,"latitude":"25.08812","longitude":"104.897971","showCityName":"\u9ED4\u897F\u5357\u5E03\u4F9D\u65CF\u82D7\u65CF","status":1},{"baiduLatitude":"30.24125481995874","baiduLongitude":"115.44037270829101","cityId":"458","cityName":"\u8572\u6625","citySpell":"qichun","isBusiness":0,"isHot":0,"isTaxi":0,"latitude":"30.234927","longitude":"115.433964","showCityName":"\u8572\u6625","status":1},{"baiduLatitude":"36.07321567575106","baiduLongitude":"120.38909238442466","cityId":"4","cityName":"\u9752\u5C9B","citySpell":"qingdao","isBusiness":1,"isHot":0,"isTaxi":1,"latitude":"36.067082","longitude":"120.382640","showCityName":"\u9752\u5C9B","status":2},{"baiduLatitude":"35.715391230601334","baiduLongitude":"107.65001711643883","cityId":"527","cityName":"\u5E86\u9633","citySpell":"qingyang","isBusiness":0,"isHot":0,"isTaxi":0,"latitude":"35.709077","longitude":"107.643631","showCityName":"\u5E86\u9633","status":1},{"baiduLatitude":"35.7405335939908","baiduLongitude":"107.64474666583169","cityId":"653","cityName":"\u5E86\u9633","citySpell":"qingyang","isBusiness":0,"isHot":0,"isTaxi":0,"latitude":"35.734218","longitude":"107.638372","showCityName":"\u5E86\u9633","status":1},{"baiduLatitude":"39.941207578437776","baiduLongitude":"119.60703098921498","cityId":"400","cityName":"\u79E6\u7687\u5C9B","citySpell":"qinhuangdao","isBusiness":0,"isHot":0,"isTaxi":1,"latitude":"39.935385","longitude":"119.600492","showCityName":"\u79E6\u7687\u5C9B","status":1},{"baiduLatitude":"21.973226301416645","baiduLongitude":"108.63066235713805","cityId":"654","cityName":"\u94A6\u5DDE","citySpell":"qinzhou","isBusiness":0,"isHot":0,"isTaxi":0,"latitude":"21.967127","longitude":"108.624175","showCityName":"\u94A6\u5DDE","status":1},{"baiduLatitude":"19.264102666590016","baiduLongitude":"110.48119130816163","cityId":"450","cityName":"\u743C\u6D77","citySpell":"qionghai","isBusiness":0,"isHot":0,"isTaxi":1,"latitude":"19.258341","longitude":"110.474648","showCityName":"\u743C\u6D77","status":1},{"baiduLatitude":"19.04140281391705","baiduLongitude":"109.84651019883","cityId":"655","cityName":"\u743C\u4E2D\u9ECE\u65CF\u82D7\u65CF\u81EA\u6CBB\u53BF","citySpell":"qiongzhonglizumiaozu","isBusiness":0,"isHot":0,"isTaxi":0,"latitude":"19.03557","longitude":"109.839996","showCityName":"\u743C\u4E2D\u9ECE\u65CF\u82D7\u65CF","status":1},{"baiduLatitude":"47.348449894336994","baiduLongitude":"123.96427678289739","cityId":"86","cityName":"\u9F50\u9F50\u54C8\u5C14","citySpell":"qiqihaer","isBusiness":0,"isHot":0,"isTaxi":0,"latitude":"47.342081","longitude":"123.957920","showCityName":"\u9F50\u9F50\u54C8\u5C14","status":2},{"baiduLatitude":"45.77738220020198","baiduLongitude":"131.02205275867456","cityId":"651","cityName":"\u4E03\u53F0\u6CB3","citySpell":"qitaihe","isBusiness":0,"isHot":0,"isTaxi":0,"latitude":"45.771266","longitude":"131.015584","showCityName":"\u4E03\u53F0\u6CB3","status":1},{"baiduLatitude":"23.80246872541789","baiduLongitude":"114.51960690359995","cityId":"538","cityName":"\u671D\u9633","citySpell":"qk","isBusiness":1,"isHot":0,"isTaxi":0,"latitude":"23.796520","longitude":"114.513077","showCityName":"\u738B\u4EAC\u7684","status":1},{"baiduLatitude":"40.0067833241306","baiduLongitude":"118.58904257912597","cityId":"726","cityName":"\u8FC1\u5B89\u5E02","citySpell":"qn","isBusiness":1,"isHot":0,"isTaxi":0,"latitude":"40.000643","longitude":"118.582572","showCityName":"\u8FC1\u5B89","status":2},{"baiduLatitude":"25.133189649915757","baiduLongitude":"118.91872811253612","cityId":"395","cityName":"\u6CC9\u6E2F","citySpell":"quangang","isBusiness":0,"isHot":0,"isTaxi":0,"latitude":"25.126859","longitude":"118.912285","showCityName":"\u6CC9\u6E2F","status":1},{"cityId":"157","cityName":"\u6CC9\u5DDE","citySpell":"quanzhou","isBusiness":1,"isHot":0,"isTaxi":0,"showCityName":"\u6CC9\u5DDE","status":2},{"baiduLatitude":"35.59910415369041","baiduLongitude":"116.99827584028992","cityId":"410","cityName":"\u66F2\u961C","citySpell":"qufu","isBusiness":0,"isHot":0,"isTaxi":0,"latitude":"35.592788","longitude":"116.991885","showCityName":"\u66F2\u961C","status":2},{"baiduLatitude":"25.507866035641385","baiduLongitude":"103.8042733970277","cityId":"650","cityName":"\u66F2\u9756","citySpell":"qujing","isBusiness":0,"isHot":0,"isTaxi":0,"latitude":"25.501557","longitude":"103.797851","showCityName":"\u66F2\u9756","status":1},{"baiduLatitude":"28.9474308523496","baiduLongitude":"118.87921615072844","cityId":"133","cityName":"\u8862\u5DDE","citySpell":"quzhou","isBusiness":0,"isHot":0,"isTaxi":0,"latitude":"28.941708","longitude":"118.872630","showCityName":"\u8862\u5DDE","status":2},{"baiduLatitude":"29.27344817959232","baiduLongitude":"88.89165851760451","cityId":"656","cityName":"\u65E5\u5580\u5219","citySpell":"rikaze","isBusiness":0,"isHot":0,"isTaxi":0,"latitude":"29.267519","longitude":"88.885148","showCityName":"\u65E5\u5580\u5219","status":1},{"baiduLatitude":"35.43423600385905","baiduLongitude":"119.46783319486343","cityId":"381","cityName":"\u65E5\u7167","citySpell":"rizhao","isBusiness":0,"isHot":0,"isTaxi":0,"latitude":"35.428588","longitude":"119.461208","showCityName":"\u65E5\u7167","status":1},{"baiduLatitude":"37.16626243137288","baiduLongitude":"122.42933884225118","cityId":"374","cityName":"\u8363\u6210","citySpell":"rongcheng","isBusiness":0,"isHot":0,"isTaxi":0,"latitude":"37.160134","longitude":"122.422896","showCityName":"\u8363\u6210","status":1},{"baiduLatitude":"27.807245410506674","baiduLongitude":"102.47466868135413","cityId":"539","cityName":"\u7389\u6811","citySpell":"ryt","isBusiness":0,"isHot":0,"isTaxi":0,"latitude":"27.800999","longitude":"102.468254","showCityName":"\u5C3C\u83AB\u4E09\u4E09","status":2},{"baiduLatitude":"34.783085725559424","baiduLongitude":"111.20065847409424","cityId":"662","cityName":"\u4E09\u95E8\u5CE1","citySpell":"sanmenxia","isBusiness":0,"isHot":0,"isTaxi":0,"latitude":"34.777338","longitude":"111.194099","showCityName":"\u4E09\u95E8\u5CE1","status":1},{"baiduLatitude":"26.27134963432871","baiduLongitude":"117.64150792023821","cityId":"661","cityName":"\u4E09\u660E","citySpell":"sanming","isBusiness":0,"isHot":0,"isTaxi":0,"latitude":"26.265444","longitude":"117.635001","showCityName":"\u4E09\u660E","status":1},{"baiduLatitude":"16.837062769817038","baiduLongitude":"112.35533663229671","cityId":"668","cityName":"\u4E09\u6C99","citySpell":"sansha","isBusiness":0,"isHot":0,"isTaxi":0,"latitude":"16.831039","longitude":"112.34882","showCityName":"\u4E09\u6C99","status":1},{"baiduLatitude":"18.258582340587314","baiduLongitude":"109.51846574504881","cityId":"17","cityName":"\u4E09\u4E9A","citySpell":"sanya","isBusiness":1,"isHot":0,"isTaxi":0,"latitude":"18.252847","longitude":"109.511909","showCityName":"\u4E09\u4E9A","status":2},{"baiduLatitude":"33.27077991747294","baiduLongitude":"114.27339430501364","cityId":"454","cityName":"\u4E0A\u8521","citySpell":"shangcai","isBusiness":0,"isHot":0,"isTaxi":0,"latitude":"33.264719","longitude":"114.266892","showCityName":"\u4E0A\u8521","status":1},{"baiduLatitude":"31.236350800982365","baiduLongitude":"121.48023840790201","cityId":"6","cityName":"\u4E0A\u6D77","citySpell":"shanghai","isBusiness":1,"isHot":1,"isTaxi":0,"latitude":"31.230416","longitude":"121.473701","showCityName":"\u4E0A\u6D77","status":2},{"baiduLatitude":"33.87449311368715","baiduLongitude":"109.9462432084738","cityId":"660","cityName":"\u5546\u6D1B","citySpell":"shangluo","isBusiness":0,"isHot":0,"isTaxi":0,"latitude":"33.868319","longitude":"109.939776","showCityName":"\u5546\u6D1B","status":1},{"baiduLatitude":"34.44306215071243","baiduLongitude":"115.65699136681658","cityId":"190","cityName":"\u5546\u4E18","citySpell":"shangqiu","isBusiness":0,"isHot":0,"isTaxi":0,"latitude":"34.437054","longitude":"115.650497","showCityName":"\u5546\u4E18","status":1},{"baiduLatitude":"28.45071601104125","baiduLongitude":"117.97761834628287","cityId":"667","cityName":"\u4E0A\u9976","citySpell":"shangrao","isBusiness":1,"isHot":0,"isTaxi":0,"latitude":"28.44442","longitude":"117.971185","showCityName":"\u4E0A\u9976","status":2},{"baiduLatitude":"29.24196872508145","baiduLongitude":"91.77303067563652","cityId":"664","cityName":"\u5C71\u5357\u5730\u533A","citySpell":"shannandiqu","isBusiness":0,"isHot":0,"isTaxi":0,"latitude":"29.236023","longitude":"91.766529","showCityName":"\u5C71\u5357\u5730\u533A","status":1},{"baiduLatitude":"23.37669976905787","baiduLongitude":"116.71500675823093","cityId":"237","cityName":"\u6C55\u5934","citySpell":"shantou","isBusiness":0,"isHot":0,"isTaxi":0,"latitude":"23.371020","longitude":"116.708463","showCityName":"\u6C55\u5934","status":1},{"baiduLatitude":"22.780246464529057","baiduLongitude":"115.37076526346796","cityId":"336","cityName":"\u6C55\u5C3E","citySpell":"shanwei","isBusiness":0,"isHot":0,"isTaxi":0,"latitude":"22.774485","longitude":"115.364238","showCityName":"\u6C55\u5C3E","status":1},{"baiduLatitude":"24.81619158362869","baiduLongitude":"113.60404770754961","cityId":"232","cityName":"\u97F6\u5173","citySpell":"shaoguan","isBusiness":0,"isHot":0,"isTaxi":0,"latitude":"24.810403","longitude":"113.597522","showCityName":"\u97F6\u5173\u5440","status":1},{"baiduLatitude":"30.035941495265973","baiduLongitude":"120.58670541640029","cityId":"128","cityName":"\u7ECD\u5174","citySpell":"shaoxing","isBusiness":1,"isHot":0,"isTaxi":1,"latitude":"30.029752","longitude":"120.580232","showCityName":"\u7ECD\u5174","status":2},{"baiduLatitude":"27.24412409549332","baiduLongitude":"111.47565874734379","cityId":"226","cityName":"\u90B5\u9633","citySpell":"shaoyang","isBusiness":0,"isHot":0,"isTaxi":0,"latitude":"27.237842","longitude":"111.469230","showCityName":"\u90B5\u9633","status":1},{"cityId":"743","cityName":"\u795E\u519C\u67B6\u6797","citySpell":"shennongjialin","isBusiness":0,"isHot":0,"isTaxi":0,"showCityName":"\u795E\u519C\u67B6\u6797","status":1},{"baiduLatitude":"31.750421244219687","baiduLongitude":"110.67802815818737","cityId":"665","cityName":"\u795E\u519C\u67B6\u6797\u533A","citySpell":"shennongjialinqu","isBusiness":0,"isHot":0,"isTaxi":0,"latitude":"31.744449","longitude":"110.671525","showCityName":"\u795E\u519C\u67B6\u6797\u533A","status":1},{"baiduLatitude":"41.81139692415349","baiduLongitude":"123.43809134837299","cityId":"21","cityName":"\u6C88\u9633","citySpell":"shenyang","isBusiness":1,"isHot":0,"isTaxi":1,"latitude":"41.805698","longitude":"123.431475","showCityName":"\u6C88\u9633","status":2},{"baiduLatitude":"22.552925471563377","baiduLongitude":"114.09244889930298","cityId":"15","cityName":"\u6DF1\u5733","citySpell":"shenzhen","isBusiness":1,"isHot":1,"isTaxi":0,"latitude":"22.547000","longitude":"114.085947","showCityName":"\u6DF1\u5733","status":2},{"baiduLatitude":"44.31215265882782","baiduLongitude":"86.04745966252547","cityId":"659","cityName":"\u77F3\u6CB3\u5B50","citySpell":"shihezi","isBusiness":0,"isHot":0,"isTaxi":0,"latitude":"44.305886","longitude":"86.041075","showCityName":"\u77F3\u6CB3\u5B50","status":1},{"baiduLatitude":"38.04822324460386","baiduLongitude":"114.52139302996893","cityId":"33","cityName":"\u77F3\u5BB6\u5E84","citySpell":"shijiazhuang","isBusiness":1,"isHot":0,"isTaxi":1,"latitude":"38.042309","longitude":"114.514862","showCityName":"\u77F3\u5BB6\u5E84","status":2},{"baiduLatitude":"32.65294519515308","baiduLongitude":"110.79441212187132","cityId":"669","cityName":"\u5341\u5830","citySpell":"shiyan","isBusiness":0,"isHot":0,"isTaxi":0,"latitude":"32.646907","longitude":"110.787916","showCityName":"\u5341\u5830","status":1},{"baiduLatitude":"39.01902168240001","baiduLongitude":"106.38279976479275","cityId":"672","cityName":"\u77F3\u5634\u5C71","citySpell":"shizuishan","isBusiness":0,"isHot":0,"isTaxi":0,"latitude":"39.01333","longitude":"106.376173","showCityName":"\u77F3\u5634\u5C71","status":1},{"baiduLatitude":"44.84646858331543","baiduLongitude":"82.36016614716797","cityId":"657","cityName":"\u53CC\u6CB3","citySpell":"shuanghe","isBusiness":0,"isHot":0,"isTaxi":0,"latitude":"44.840524","longitude":"82.353656","showCityName":"\u53CC\u6CB3","status":1},{"baiduLatitude":"46.64982524761798","baiduLongitude":"131.1636477171681","cityId":"670","cityName":"\u53CC\u9E2D\u5C71","citySpell":"shuangyashan","isBusiness":0,"isHot":0,"isTaxi":0,"latitude":"46.643442","longitude":"131.157304","showCityName":"\u53CC\u9E2D\u5C71","status":1},{"baiduLatitude":"39.337902193235884","baiduLongitude":"112.43919642162658","cityId":"47","cityName":"\u6714\u5DDE","citySpell":"shuozhou","isBusiness":1,"isHot":0,"isTaxi":0,"latitude":"39.331595","longitude":"112.432825","showCityName":"\u6714\u5DDE","status":1},{"baiduLatitude":"43.17600692498253","baiduLongitude":"124.3773808344573","cityId":"666","cityName":"\u56DB\u5E73","citySpell":"siping","isBusiness":0,"isHot":0,"isTaxi":0,"latitude":"43.170344","longitude":"124.370785","showCityName":"\u56DB\u5E73","status":1},{"baiduLatitude":"45.12436537823004","baiduLongitude":"124.8300618119124","cityId":"79","cityName":"\u677E\u539F","citySpell":"songyuan","isBusiness":0,"isHot":0,"isTaxi":0,"latitude":"45.118243","longitude":"124.823608","showCityName":"\u677E\u539F","status":1},{"baiduLatitude":"22.782306788754955","baiduLongitude":"100.97977271934056","cityId":"511","cityName":"\u601D\u8305","citySpell":"ss","isBusiness":1,"isHot":0,"isTaxi":0,"latitude":"22.776595","longitude":"100.973227","showCityName":"\u601D\u8305","status":1},{"cityId":"531","cityName":"\u4F0A\u5B81","citySpell":"ssdd","isBusiness":1,"isHot":0,"isTaxi":0,"showCityName":"\u987A\u98CE\u8F66\u7684","status":2},{"baiduLatitude":"46.643329335064216","baiduLongitude":"126.99943655026571","cityId":"658","cityName":"\u7EE5\u5316","citySpell":"suihua","isBusiness":0,"isHot":0,"isTaxi":0,"latitude":"46.637393","longitude":"126.99293","showCityName":"\u7EE5\u5316","status":1},{"baiduLatitude":"33.90553459960989","baiduLongitude":"117.95707100535367","cityId":"451","cityName":"\u7762\u5B81","citySpell":"suining","isBusiness":0,"isHot":0,"isTaxi":0,"latitude":"33.899222","longitude":"117.950660","showCityName":"\u7762\u5B81","status":1},{"baiduLatitude":"30.519338524311923","baiduLongitude":"105.5778435512007","cityId":"663","cityName":"\u9042\u5B81","citySpell":"suining","isBusiness":0,"isHot":0,"isTaxi":0,"latitude":"30.513311","longitude":"105.571331","showCityName":"\u9042\u5B81","status":1},{"baiduLatitude":"31.723568682157214","baiduLongitude":"113.38026913444754","cityId":"671","cityName":"\u968F\u5DDE","citySpell":"suizhou","isBusiness":0,"isHot":0,"isTaxi":0,"latitude":"31.717497","longitude":"113.37377","showCityName":"\u968F\u5DDE","status":1},{"baiduLatitude":"33.968760103415136","baiduLongitude":"118.28173644757352","cityId":"123","cityName":"\u5BBF\u8FC1","citySpell":"suqian","isBusiness":0,"isHot":0,"isTaxi":0,"latitude":"33.963008","longitude":"118.275162","showCityName":"\u5BBF\u8FC1","status":1},{"baiduLatitude":"31.305562298230623","baiduLongitude":"120.62601721553862","cityId":"19","cityName":"\u82CF\u5DDE","citySpell":"suzhou","isBusiness":1,"isHot":0,"isTaxi":0,"latitude":"31.299379","longitude":"120.619583","showCityName":"\u82CF\u5DDE","status":2},{"baiduLatitude":"33.64013238968456","baiduLongitude":"116.99053497802136","cityId":"138","cityName":"\u5BBF\u5DDE","citySpell":"suzhou","isBusiness":0,"isHot":0,"isTaxi":0,"latitude":"33.633891","longitude":"116.984084","showCityName":"\u5BBF\u5DDE","status":1},{"baiduLatitude":"46.752059991241204","baiduLongitude":"82.99236032444459","cityId":"674","cityName":"\u5854\u57CE\u5730\u533A","citySpell":"tachengdiqu","isBusiness":0,"isHot":0,"isTaxi":0,"latitude":"46.746301","longitude":"82.985732","showCityName":"\u5854\u57CE\u5730\u533A","status":1},{"baiduLatitude":"36.20127639182697","baiduLongitude":"117.13545292382106","cityId":"171","cityName":"\u6CF0\u5B89","citySpell":"taian","isBusiness":0,"isHot":0,"isTaxi":0,"latitude":"36.194968","longitude":"117.129063","showCityName":"\u6CF0\u5B89","status":1},{"baiduLatitude":"31.458527896598213","baiduLongitude":"121.11879805213385","cityId":"409","cityName":"\u592A\u4ED3","citySpell":"taicang","isBusiness":0,"isHot":0,"isTaxi":0,"latitude":"31.452568","longitude":"121.112275","showCityName":"\u592A\u4ED3","status":1},{"baiduLatitude":"37.43091213808524","baiduLongitude":"112.56048233399882","cityId":"461","cityName":"\u592A\u8C37","citySpell":"taigu","isBusiness":0,"isHot":0,"isTaxi":0,"latitude":"37.424595","longitude":"112.554103","showCityName":"\u592A\u8C37","status":1},{"cityId":"30","cityName":"\u592A\u539F","citySpell":"taiyuan","isBusiness":1,"isHot":0,"isTaxi":0,"showCityName":"\u592A\u539F","status":2},{"baiduLatitude":"28.66767547990618","baiduLongitude":"121.43501177454095","cityId":"134","cityName":"\u53F0\u5DDE","citySpell":"taizhou","isBusiness":0,"isHot":0,"isTaxi":0,"latitude":"28.661378","longitude":"121.428599","showCityName":"\u53F0\u5DDE","status":2},{"baiduLatitude":"32.490780649956065","baiduLongitude":"119.9216834742605","cityId":"684","cityName":"\u6CF0\u5DDE","citySpell":"taizhou","isBusiness":0,"isHot":0,"isTaxi":0,"latitude":"32.484882","longitude":"119.915176","showCityName":"\u6CF0\u5DDE","status":1},{"baiduLatitude":"39.63705371624509","baiduLongitude":"118.18665145877584","cityId":"40","cityName":"\u5510\u5C71","citySpell":"tangshan","isBusiness":1,"isHot":0,"isTaxi":0,"latitude":"39.630867","longitude":"118.180193","showCityName":"\u5510\u5C71","status":2},{"cityId":"751","cityName":"\u51FA\u79DF\u8F66","citySpell":"taxi","isBusiness":1,"isHot":0,"isTaxi":1,"showCityName":"\u51FA\u79DF\u8F66\u6D4B\u8BD5","status":2},{"baiduLatitude":"25.0236807247463","baiduLongitude":"98.50376649509415","cityId":"424","cityName":"\u817E\u51B2","citySpell":"tengchong","isBusiness":0,"isHot":0,"isTaxi":0,"latitude":"25.017570","longitude":"98.497292","showCityName":"\u817E\u51B2","status":2},{"baiduLatitude":"11.118243263800652","baiduLongitude":"22.228698313908644","cityId":"494","cityName":"\u5E93\u8F66","citySpell":"test","isBusiness":0,"isHot":0,"isTaxi":0,"latitude":"11.1122222","longitude":"22.2222222","showCityName":"\u6258\u5C14\u65AF\u6CF0","status":3},{"cityId":"749","cityName":"\u6C5D\u5DDE","citySpell":"test","isBusiness":1,"isHot":0,"isTaxi":0,"showCityName":"\u4ED9\u6D4B","status":3},{"baiduLatitude":"39.08999206343996","baiduLongitude":"117.20751823224299","cityId":"2","cityName":"\u5929\u6D25","citySpell":"tianjin","isBusiness":1,"isHot":0,"isTaxi":1,"latitude":"39.084158","longitude":"117.200983","showCityName":"\u5929\u6D25","status":2},{"baiduLatitude":"30.65364871637462","baiduLongitude":"113.16849150283163","cityId":"679","cityName":"\u5929\u95E8","citySpell":"tianmen","isBusiness":1,"isHot":0,"isTaxi":1,"latitude":"30.647308","longitude":"113.162071","showCityName":"\u5929\u95E8","status":2},{"baiduLatitude":"30.66968993538279","baiduLongitude":"113.17293894300249","cityId":"738","cityName":"\u5929\u95E8\u5E02","citySpell":"tianmenshi","isBusiness":0,"isHot":0,"isTaxi":0,"latitude":"30.663371","longitude":"113.166529","showCityName":"\u5929\u95E8\u5E02","status":1},{"baiduLatitude":"34.584840505067774","baiduLongitude":"105.73141347810163","cityId":"683","cityName":"\u5929\u6C34","citySpell":"tianshui","isBusiness":0,"isHot":0,"isTaxi":0,"latitude":"34.578529","longitude":"105.724998","showCityName":"\u5929\u6C34","status":1},{"baiduLatitude":"42.29695030527935","baiduLongitude":"123.85066425574283","cityId":"677","cityName":"\u94C1\u5CAD","citySpell":"tieling","isBusiness":0,"isHot":0,"isTaxi":0,"latitude":"42.290585","longitude":"123.844279","showCityName":"\u94C1\u5CAD","status":1},{"baiduLatitude":"41.83299176046908","baiduLongitude":"85.50783656815432","cityId":"680","cityName":"\u94C1\u95E8\u5173","citySpell":"tiemenguan","isBusiness":0,"isHot":0,"isTaxi":0,"latitude":"41.827251","longitude":"85.501218","showCityName":"\u94C1\u95E8\u5173","status":1},{"cityId":"495","cityName":"\u5EF6\u5409","citySpell":"tongburrr","isBusiness":0,"isHot":0,"isTaxi":0,"showCityName":"\u540C\u6B65\u6D4B\u8BD5","status":1},{"baiduLatitude":"34.922750159646064","baiduLongitude":"108.98605038373492","cityId":"673","cityName":"\u94DC\u5DDD","citySpell":"tongchuan","isBusiness":0,"isHot":0,"isTaxi":0,"latitude":"34.916582","longitude":"108.979608","showCityName":"\u94DC\u5DDD","status":1},{"baiduLatitude":"41.72679988293165","baiduLongitude":"125.94310707311958","cityId":"676","cityName":"\u901A\u5316","citySpell":"tonghua","isBusiness":0,"isHot":0,"isTaxi":0,"latitude":"41.721177","longitude":"125.936501","showCityName":"\u901A\u5316","status":1},{"baiduLatitude":"43.623662501466285","baiduLongitude":"122.2695385479034","cityId":"65","cityName":"\u901A\u8FBD","citySpell":"tongliao","isBusiness":0,"isHot":0,"isTaxi":0,"latitude":"43.617429","longitude":"122.263119","showCityName":"\u901A\u8FBD","status":2},{"baiduLatitude":"30.936049230389308","baiduLongitude":"117.82302533387066","cityId":"144","cityName":"\u94DC\u9675","citySpell":"tongling","isBusiness":0,"isHot":0,"isTaxi":0,"latitude":"30.929935","longitude":"117.816576","showCityName":"\u94DC\u9675","status":1},{"cityId":"524","cityName":"\u94DC\u4EC1","citySpell":"tongren","isBusiness":1,"isHot":0,"isTaxi":0,"showCityName":"\u94DC\u4EC1","status":2},{"baiduLatitude":"27.724641643224246","baiduLongitude":"109.19797816558352","cityId":"682","cityName":"\u94DC\u4EC1","citySpell":"tongren","isBusiness":0,"isHot":0,"isTaxi":0,"latitude":"27.718346","longitude":"109.191555","showCityName":"\u94DC\u4EC1","status":1},{"baiduLatitude":"42.95368939655911","baiduLongitude":"89.19052780133686","cityId":"678","cityName":"\u5410\u9C81\u756A","citySpell":"tulufan","isBusiness":0,"isHot":0,"isTaxi":0,"latitude":"42.947613","longitude":"89.184078","showCityName":"\u5410\u9C81\u756A","status":1},{"baiduLatitude":"39.873560820274484","baiduLongitude":"79.084376750068","cityId":"681","cityName":"\u56FE\u6728\u8212\u514B","citySpell":"tumushuke","isBusiness":0,"isHot":0,"isTaxi":0,"latitude":"39.867316","longitude":"79.077978","showCityName":"\u56FE\u6728\u8212\u514B","status":1},{"baiduLatitude":"19.368591868760205","baiduLongitude":"110.10934583942876","cityId":"675","cityName":"\u5C6F\u660C\u53BF","citySpell":"tunchangxian","isBusiness":0,"isHot":0,"isTaxi":0,"latitude":"19.362916","longitude":"110.102773","showCityName":"\u5C6F\u660C\u53BF","status":1},{"cityId":"764","cityName":"\u55EF\u55EF\u54C8\u54C8","citySpell":"uy","isBusiness":1,"isHot":0,"isTaxi":0,"showCityName":"\u55EF\u55EF\u54C8\u54C8","status":1},{"baiduLatitude":"18.80248924814132","baiduLongitude":"110.3952312435212","cityId":"687","cityName":"\u4E07\u5B81","citySpell":"wanning","isBusiness":0,"isHot":0,"isTaxi":0,"latitude":"18.796216","longitude":"110.388793","showCityName":"\u4E07\u5B81","status":1},{"baiduLatitude":"30.32440163326242","baiduLongitude":"119.73214262280742","cityId":"543","cityName":"\u4E95\u5188\u5C71","citySpell":"wcz","isBusiness":1,"isHot":0,"isTaxi":0,"latitude":"30.318487","longitude":"119.725638","showCityName":"\u4E34\u5B89\u4E00\u4EBF\u516D","status":1},{"cityId":"763","cityName":"\u6D4B\u8BD5","citySpell":"we","isBusiness":1,"isHot":0,"isTaxi":0,"showCityName":"\u54C8\u54C8\u6D4B\u8BD5","status":2},{"baiduLatitude":"36.71491379419653","baiduLongitude":"119.11367045171365","cityId":"174","cityName":"\u6F4D\u574A","citySpell":"weifang","isBusiness":0,"isHot":0,"isTaxi":0,"latitude":"36.709250","longitude":"119.107078","showCityName":"\u6F4D\u574A","status":2},{"baiduLatitude":"37.51545067861623","baiduLongitude":"122.12295826349542","cityId":"176","cityName":"\u5A01\u6D77","citySpell":"weihai","isBusiness":1,"isHot":0,"isTaxi":0,"latitude":"37.509693","longitude":"122.116394","showCityName":"\u5A01\u6D77","status":2},{"baiduLatitude":"34.505056419120784","baiduLongitude":"109.50948493965882","cityId":"688","cityName":"\u6E2D\u5357","citySpell":"weinan","isBusiness":0,"isHot":0,"isTaxi":0,"latitude":"34.499381","longitude":"109.502882","showCityName":"\u6E2D\u5357","status":1},{"baiduLatitude":"23.37540914265446","baiduLongitude":"104.25051212057338","cityId":"689","cityName":"\u6587\u5C71","citySpell":"wenshanzhuangzumiaozu","isBusiness":0,"isHot":0,"isTaxi":0,"latitude":"23.36951","longitude":"104.24401","showCityName":"\u6587\u5C71\u58EE\u65CF\u82D7\u65CF","status":1},{"baiduLatitude":"28.006287209358746","baiduLongitude":"120.67869524173595","cityId":"127","cityName":"\u6E29\u5DDE","citySpell":"wenzhou","isBusiness":0,"isHot":0,"isTaxi":0,"latitude":"28.000575","longitude":"120.672111","showCityName":"\u6E29\u5DDE","status":2},